{
"type": "FeatureCollection",
"name": "tourism",
"crs": { "type": "name", "properties": { "name": "urn:ogc:def:crs:OGC:1.3:CRS84" } },
"features": [
{ "type": "Feature", "properties": { "NAME": null, "NAME_EN": null, "MAN_MADE": "surveillance", "LEISURE": null, "AMENITY": null, "OFFICE": null, "SHOP": null, "TOURISM": null, "SPORT": null, "OSM_TYPE": "node", "OSM_ID": 278303396 }, "geometry": { "type": "Point", "coordinates": [ -68.27297080000001, 12.1446288 ] } },
{ "type": "Feature", "properties": { "NAME": null, "NAME_EN": null, "MAN_MADE": "surveillance", "LEISURE": null, "AMENITY": null, "OFFICE": null, "SHOP": null, "TOURISM": null, "SPORT": null, "OSM_TYPE": "node", "OSM_ID": 287960358 }, "geometry": { "type": "Point", "coordinates": [ -68.2728545, 12.1445123 ] } },
{ "type": "Feature", "properties": { "NAME": "Bari Reef", "NAME_EN": null, "MAN_MADE": null, "LEISURE": null, "AMENITY": null, "OFFICE": null, "SHOP": null, "TOURISM": null, "SPORT": "scuba_diving", "OSM_TYPE": "node", "OSM_ID": 313862678 }, "geometry": { "type": "Point", "coordinates": [ -68.2872007, 12.1674719 ] } },
{ "type": "Feature", "properties": { "NAME": "Dive Friends Bonaire @ SD", "NAME_EN": null, "MAN_MADE": null, "LEISURE": null, "AMENITY": null, "OFFICE": null, "SHOP": "scuba_diving", "TOURISM": null, "SPORT": null, "OSM_TYPE": "node", "OSM_ID": 313862857 }, "geometry": { "type": "Point", "coordinates": [ -68.2868883, 12.1675911 ] } },
{ "type": "Feature", "properties": { "NAME": "1000 Steps", "NAME_EN": null, "MAN_MADE": null, "LEISURE": null, "AMENITY": null, "OFFICE": null, "SHOP": null, "TOURISM": null, "SPORT": "scuba_diving", "OSM_TYPE": "node", "OSM_ID": 313863131 }, "geometry": { "type": "Point", "coordinates": [ -68.32171120000001, 12.2106695 ] } },
{ "type": "Feature", "properties": { "NAME": null, "NAME_EN": null, "MAN_MADE": null, "LEISURE": null, "AMENITY": "parking", "OFFICE": null, "SHOP": null, "TOURISM": null, "SPORT": null, "OSM_TYPE": "node", "OSM_ID": 493515087 }, "geometry": { "type": "Point", "coordinates": [ -68.2759979, 12.1512843 ] } },
{ "type": "Feature", "properties": { "NAME": "Hamlet Oasis Resort", "NAME_EN": null, "MAN_MADE": null, "LEISURE": null, "AMENITY": null, "OFFICE": null, "SHOP": null, "TOURISM": "hotel", "SPORT": null, "OSM_TYPE": "node", "OSM_ID": 529050421 }, "geometry": { "type": "Point", "coordinates": [ -68.2890155, 12.1744041 ] } },
{ "type": "Feature", "properties": { "NAME": "Seru Largu", "NAME_EN": null, "MAN_MADE": null, "LEISURE": null, "AMENITY": "place_of_worship", "OFFICE": null, "SHOP": null, "TOURISM": null, "SPORT": null, "OSM_TYPE": "node", "OSM_ID": 540032959 }, "geometry": { "type": "Point", "coordinates": [ -68.2721008, 12.1936531 ] } },
{ "type": "Feature", "properties": { "NAME": "Seru Largu", "NAME_EN": null, "MAN_MADE": null, "LEISURE": null, "AMENITY": null, "OFFICE": null, "SHOP": null, "TOURISM": "viewpoint", "SPORT": null, "OSM_TYPE": "node", "OSM_ID": 540032960 }, "geometry": { "type": "Point", "coordinates": [ -68.2721035, 12.1935954 ] } },
{ "type": "Feature", "properties": { "NAME": "Seru Bentana Lighthouse", "NAME_EN": null, "MAN_MADE": "lighthouse", "LEISURE": null, "AMENITY": null, "OFFICE": null, "SHOP": null, "TOURISM": "viewpoint", "SPORT": null, "OSM_TYPE": "node", "OSM_ID": 540032961 }, "geometry": { "type": "Point", "coordinates": [ -68.3760885, 12.3049287 ] } },
{ "type": "Feature", "properties": { "NAME": "Willemstoren Lighthouse", "NAME_EN": null, "MAN_MADE": "lighthouse", "LEISURE": null, "AMENITY": null, "OFFICE": null, "SHOP": null, "TOURISM": null, "SPORT": null, "OSM_TYPE": "node", "OSM_ID": 540034414 }, "geometry": { "type": "Point", "coordinates": [ -68.2373018, 12.0283185 ] } },
{ "type": "Feature", "properties": { "NAME": "Goto Lake viewpoint", "NAME_EN": null, "MAN_MADE": null, "LEISURE": null, "AMENITY": "parking", "OFFICE": null, "SHOP": null, "TOURISM": "viewpoint", "SPORT": null, "OSM_TYPE": "node", "OSM_ID": 540059570 }, "geometry": { "type": "Point", "coordinates": [ -68.3707345, 12.2323174 ] } },
{ "type": "Feature", "properties": { "NAME": "Ingridients Restaurant", "NAME_EN": null, "MAN_MADE": null, "LEISURE": null, "AMENITY": "restaurant", "OFFICE": null, "SHOP": null, "TOURISM": null, "SPORT": null, "OSM_TYPE": "node", "OSM_ID": 634037501 }, "geometry": { "type": "Point", "coordinates": [ -68.28836, 12.1708559 ] } },
{ "type": "Feature", "properties": { "NAME": null, "NAME_EN": null, "MAN_MADE": "surveillance", "LEISURE": null, "AMENITY": null, "OFFICE": null, "SHOP": null, "TOURISM": null, "SPORT": null, "OSM_TYPE": "node", "OSM_ID": 634954128 }, "geometry": { "type": "Point", "coordinates": [ -68.2730674, 12.1445183 ] } },
{ "type": "Feature", "properties": { "NAME": null, "NAME_EN": null, "MAN_MADE": "surveillance", "LEISURE": null, "AMENITY": null, "OFFICE": null, "SHOP": null, "TOURISM": null, "SPORT": null, "OSM_TYPE": "node", "OSM_ID": 634954138 }, "geometry": { "type": "Point", "coordinates": [ -68.2729477, 12.144421 ] } },
{ "type": "Feature", "properties": { "NAME": "Boy Scout", "NAME_EN": null, "MAN_MADE": null, "LEISURE": null, "AMENITY": null, "OFFICE": null, "SHOP": null, "TOURISM": null, "SPORT": "scuba_diving", "OSM_TYPE": "node", "OSM_ID": 635094192 }, "geometry": { "type": "Point", "coordinates": [ -68.28101070000001, 12.1589381 ] } },
{ "type": "Feature", "properties": { "NAME": "Mi Cas", "NAME_EN": null, "MAN_MADE": null, "LEISURE": null, "AMENITY": null, "OFFICE": null, "SHOP": null, "TOURISM": null, "SPORT": "scuba_diving", "OSM_TYPE": "node", "OSM_ID": 635094202 }, "geometry": { "type": "Point", "coordinates": [ -68.2789411, 12.1549049 ] } },
{ "type": "Feature", "properties": { "NAME": "Buddy's Reef", "NAME_EN": null, "MAN_MADE": null, "LEISURE": null, "AMENITY": null, "OFFICE": null, "SHOP": null, "TOURISM": null, "SPORT": "scuba_diving", "OSM_TYPE": "node", "OSM_ID": 635094204 }, "geometry": { "type": "Point", "coordinates": [ -68.288684600000011, 12.1710564 ] } },
{ "type": "Feature", "properties": { "NAME": "La Machaca", "NAME_EN": null, "MAN_MADE": null, "LEISURE": null, "AMENITY": null, "OFFICE": null, "SHOP": null, "TOURISM": null, "SPORT": "scuba_diving", "OSM_TYPE": "node", "OSM_ID": 635094207 }, "geometry": { "type": "Point", "coordinates": [ -68.2893863, 12.171676 ] } },
{ "type": "Feature", "properties": { "NAME": "English Garden", "NAME_EN": null, "MAN_MADE": null, "LEISURE": null, "AMENITY": null, "OFFICE": null, "SHOP": null, "TOURISM": null, "SPORT": "scuba_diving", "OSM_TYPE": "node", "OSM_ID": 635881767 }, "geometry": { "type": "Point", "coordinates": [ -68.28221760000001, 12.0597582 ] } },
{ "type": "Feature", "properties": { "NAME": "Alice in Wonderland", "NAME_EN": null, "MAN_MADE": null, "LEISURE": null, "AMENITY": null, "OFFICE": null, "SHOP": null, "TOURISM": null, "SPORT": "scuba_diving", "OSM_TYPE": "node", "OSM_ID": 635881804 }, "geometry": { "type": "Point", "coordinates": [ -68.2852927, 12.0998035 ] } },
{ "type": "Feature", "properties": { "NAME": "Hilma Hooker", "NAME_EN": null, "MAN_MADE": null, "LEISURE": null, "AMENITY": null, "OFFICE": null, "SHOP": null, "TOURISM": null, "SPORT": "scuba_diving", "OSM_TYPE": "node", "OSM_ID": 635881808 }, "geometry": { "type": "Point", "coordinates": [ -68.2901176, 12.1037524 ] } },
{ "type": "Feature", "properties": { "NAME": "Corporal Meiss", "NAME_EN": null, "MAN_MADE": null, "LEISURE": null, "AMENITY": null, "OFFICE": null, "SHOP": null, "TOURISM": null, "SPORT": "scuba_diving", "OSM_TYPE": "node", "OSM_ID": 635881836 }, "geometry": { "type": "Point", "coordinates": [ -68.2846951, 12.1308642 ] } },
{ "type": "Feature", "properties": { "NAME": "Something Special", "NAME_EN": null, "MAN_MADE": null, "LEISURE": null, "AMENITY": null, "OFFICE": null, "SHOP": null, "TOURISM": null, "SPORT": "scuba_diving", "OSM_TYPE": "node", "OSM_ID": 635942336 }, "geometry": { "type": "Point", "coordinates": [ -68.2838525, 12.1613822 ] } },
{ "type": "Feature", "properties": { "NAME": null, "NAME_EN": null, "MAN_MADE": null, "LEISURE": null, "AMENITY": "parking", "OFFICE": null, "SHOP": null, "TOURISM": null, "SPORT": null, "OSM_TYPE": "node", "OSM_ID": 636400639 }, "geometry": { "type": "Point", "coordinates": [ -68.2973979, 12.1915792 ] } },
{ "type": "Feature", "properties": { "NAME": "Andrea II", "NAME_EN": null, "MAN_MADE": null, "LEISURE": null, "AMENITY": null, "OFFICE": null, "SHOP": null, "TOURISM": null, "SPORT": "scuba_diving", "OSM_TYPE": "node", "OSM_ID": 636400643 }, "geometry": { "type": "Point", "coordinates": [ -68.2978203, 12.1913607 ] } },
{ "type": "Feature", "properties": { "NAME": "Jeff Davis Memorial", "NAME_EN": null, "MAN_MADE": null, "LEISURE": null, "AMENITY": null, "OFFICE": null, "SHOP": null, "TOURISM": null, "SPORT": "scuba_diving", "OSM_TYPE": "node", "OSM_ID": 636400684 }, "geometry": { "type": "Point", "coordinates": [ -68.3140546, 12.2049583 ] } },
{ "type": "Feature", "properties": { "NAME": "Weber's Joy", "NAME_EN": null, "MAN_MADE": null, "LEISURE": null, "AMENITY": null, "OFFICE": null, "SHOP": null, "TOURISM": null, "SPORT": "scuba_diving", "OSM_TYPE": "node", "OSM_ID": 636400689 }, "geometry": { "type": "Point", "coordinates": [ -68.3165738, 12.2065395 ] } },
{ "type": "Feature", "properties": { "NAME": "Oil Slick", "NAME_EN": null, "MAN_MADE": null, "LEISURE": null, "AMENITY": null, "OFFICE": null, "SHOP": null, "TOURISM": null, "SPORT": "scuba_diving", "OSM_TYPE": "node", "OSM_ID": 636400703 }, "geometry": { "type": "Point", "coordinates": [ -68.3087706, 12.2000579 ] } },
{ "type": "Feature", "properties": { "NAME": null, "NAME_EN": null, "MAN_MADE": "mast", "LEISURE": null, "AMENITY": null, "OFFICE": null, "SHOP": null, "TOURISM": null, "SPORT": null, "OSM_TYPE": "node", "OSM_ID": 637323043 }, "geometry": { "type": "Point", "coordinates": [ -68.2860647, 12.1068512 ] } },
{ "type": "Feature", "properties": { "NAME": null, "NAME_EN": null, "MAN_MADE": "mast", "LEISURE": null, "AMENITY": null, "OFFICE": null, "SHOP": null, "TOURISM": null, "SPORT": null, "OSM_TYPE": "node", "OSM_ID": 637323045 }, "geometry": { "type": "Point", "coordinates": [ -68.2856174, 12.1064236 ] } },
{ "type": "Feature", "properties": { "NAME": null, "NAME_EN": null, "MAN_MADE": "mast", "LEISURE": null, "AMENITY": null, "OFFICE": null, "SHOP": null, "TOURISM": null, "SPORT": null, "OSM_TYPE": "node", "OSM_ID": 637323047 }, "geometry": { "type": "Point", "coordinates": [ -68.2842614, 12.1077627 ] } },
{ "type": "Feature", "properties": { "NAME": null, "NAME_EN": null, "MAN_MADE": "mast", "LEISURE": null, "AMENITY": null, "OFFICE": null, "SHOP": null, "TOURISM": null, "SPORT": null, "OSM_TYPE": "node", "OSM_ID": 637323049 }, "geometry": { "type": "Point", "coordinates": [ -68.2847059, 12.108179 ] } },
{ "type": "Feature", "properties": { "NAME": "MCB", "NAME_EN": null, "MAN_MADE": null, "LEISURE": null, "AMENITY": "atm", "OFFICE": null, "SHOP": null, "TOURISM": null, "SPORT": null, "OSM_TYPE": "node", "OSM_ID": 638522368 }, "geometry": { "type": "Point", "coordinates": [ -68.2853647, 12.1686707 ] } },
{ "type": "Feature", "properties": { "NAME": "San Dollar Grocery", "NAME_EN": null, "MAN_MADE": null, "LEISURE": null, "AMENITY": null, "OFFICE": null, "SHOP": "supermarket", "TOURISM": null, "SPORT": null, "OSM_TYPE": "node", "OSM_ID": 638522369 }, "geometry": { "type": "Point", "coordinates": [ -68.2859588, 12.1680813 ] } },
{ "type": "Feature", "properties": { "NAME": "Lover's Ice Cream", "NAME_EN": null, "MAN_MADE": null, "LEISURE": null, "AMENITY": "cafe", "OFFICE": null, "SHOP": null, "TOURISM": null, "SPORT": null, "OSM_TYPE": "node", "OSM_ID": 638522371 }, "geometry": { "type": "Point", "coordinates": [ -68.2860364, 12.1682945 ] } },
{ "type": "Feature", "properties": { "NAME": "Wine and Liquor", "NAME_EN": null, "MAN_MADE": null, "LEISURE": null, "AMENITY": null, "OFFICE": null, "SHOP": "alcohol", "TOURISM": null, "SPORT": null, "OSM_TYPE": "node", "OSM_ID": 638522374 }, "geometry": { "type": "Point", "coordinates": [ -68.2859868, 12.1681655 ] } },
{ "type": "Feature", "properties": { "NAME": "Front Porch", "NAME_EN": null, "MAN_MADE": null, "LEISURE": null, "AMENITY": null, "OFFICE": null, "SHOP": null, "TOURISM": null, "SPORT": "scuba_diving", "OSM_TYPE": "node", "OSM_ID": 639106013 }, "geometry": { "type": "Point", "coordinates": [ -68.2871264, 12.1666879 ] } },
{ "type": "Feature", "properties": { "NAME": "MCB", "NAME_EN": null, "MAN_MADE": null, "LEISURE": null, "AMENITY": "atm", "OFFICE": null, "SHOP": null, "TOURISM": null, "SPORT": null, "OSM_TYPE": "node", "OSM_ID": 639106015 }, "geometry": { "type": "Point", "coordinates": [ -68.2860836, 12.1685653 ] } },
{ "type": "Feature", "properties": { "NAME": "Butterfly Farm Bonaire", "NAME_EN": null, "MAN_MADE": null, "LEISURE": null, "AMENITY": null, "OFFICE": null, "SHOP": null, "TOURISM": "attraction", "SPORT": null, "OSM_TYPE": "node", "OSM_ID": 646742860 }, "geometry": { "type": "Point", "coordinates": [ -68.2325594, 12.1302791 ] } },
{ "type": "Feature", "properties": { "NAME": "Willemstoren Lighthouse", "NAME_EN": null, "MAN_MADE": null, "LEISURE": null, "AMENITY": null, "OFFICE": null, "SHOP": null, "TOURISM": null, "SPORT": "scuba_diving", "OSM_TYPE": "node", "OSM_ID": 663869394 }, "geometry": { "type": "Point", "coordinates": [ -68.2367651, 12.0276628 ] } },
{ "type": "Feature", "properties": { "NAME": "Sweet Dreams", "NAME_EN": null, "MAN_MADE": null, "LEISURE": null, "AMENITY": null, "OFFICE": null, "SHOP": null, "TOURISM": null, "SPORT": "scuba_diving", "OSM_TYPE": "node", "OSM_ID": 663869395 }, "geometry": { "type": "Point", "coordinates": [ -68.2627409, 12.0349171 ] } },
{ "type": "Feature", "properties": { "NAME": "Vista Blue", "NAME_EN": null, "MAN_MADE": null, "LEISURE": null, "AMENITY": null, "OFFICE": null, "SHOP": null, "TOURISM": null, "SPORT": "scuba_diving", "OSM_TYPE": "node", "OSM_ID": 663869396 }, "geometry": { "type": "Point", "coordinates": [ -68.2648116, 12.0386524 ] } },
{ "type": "Feature", "properties": { "NAME": "Red Slave", "NAME_EN": null, "MAN_MADE": null, "LEISURE": null, "AMENITY": null, "OFFICE": null, "SHOP": null, "TOURISM": null, "SPORT": "scuba_diving", "OSM_TYPE": "node", "OSM_ID": 663869397 }, "geometry": { "type": "Point", "coordinates": [ -68.2515176, 12.0260699 ] } },
{ "type": "Feature", "properties": { "NAME": "Lighthouse Point", "NAME_EN": null, "MAN_MADE": null, "LEISURE": null, "AMENITY": null, "OFFICE": null, "SHOP": null, "TOURISM": null, "SPORT": "scuba_diving", "OSM_TYPE": "node", "OSM_ID": 663869398 }, "geometry": { "type": "Point", "coordinates": [ -68.2952067, 12.1139501 ] } },
{ "type": "Feature", "properties": { "NAME": "Punt Vierkant", "NAME_EN": null, "MAN_MADE": null, "LEISURE": null, "AMENITY": null, "OFFICE": null, "SHOP": null, "TOURISM": null, "SPORT": "scuba_diving", "OSM_TYPE": "node", "OSM_ID": 663869399 }, "geometry": { "type": "Point", "coordinates": [ -68.291505, 12.108785 ] } },
{ "type": "Feature", "properties": { "NAME": "Margate Bay", "NAME_EN": null, "MAN_MADE": null, "LEISURE": null, "AMENITY": null, "OFFICE": null, "SHOP": null, "TOURISM": null, "SPORT": "scuba_diving", "OSM_TYPE": "node", "OSM_ID": 663869400 }, "geometry": { "type": "Point", "coordinates": [ -68.2722056, 12.0513405 ] } },
{ "type": "Feature", "properties": { "NAME": "Salt Pier", "NAME_EN": null, "MAN_MADE": null, "LEISURE": null, "AMENITY": null, "OFFICE": null, "SHOP": null, "TOURISM": null, "SPORT": "scuba_diving", "OSM_TYPE": "node", "OSM_ID": 663869401 }, "geometry": { "type": "Point", "coordinates": [ -68.28195190000001, 12.0835942 ] } },
{ "type": "Feature", "properties": { "NAME": "Invisibles", "NAME_EN": null, "MAN_MADE": null, "LEISURE": null, "AMENITY": null, "OFFICE": null, "SHOP": null, "TOURISM": null, "SPORT": "scuba_diving", "OSM_TYPE": "node", "OSM_ID": 663869402 }, "geometry": { "type": "Point", "coordinates": [ -68.2801815, 12.077631 ] } },
{ "type": "Feature", "properties": { "NAME": "Salt City", "NAME_EN": null, "MAN_MADE": null, "LEISURE": null, "AMENITY": null, "OFFICE": null, "SHOP": null, "TOURISM": null, "SPORT": "scuba_diving", "OSM_TYPE": "node", "OSM_ID": 663869403 }, "geometry": { "type": "Point", "coordinates": [ -68.2806859, 12.079695 ] } },
{ "type": "Feature", "properties": { "NAME": "Pink Beach", "NAME_EN": null, "MAN_MADE": null, "LEISURE": null, "AMENITY": null, "OFFICE": null, "SHOP": null, "TOURISM": null, "SPORT": "scuba_diving", "OSM_TYPE": "node", "OSM_ID": 663869404 }, "geometry": { "type": "Point", "coordinates": [ -68.2822351, 12.0628465 ] } },
{ "type": "Feature", "properties": { "NAME": "Tori's Reef", "NAME_EN": null, "MAN_MADE": null, "LEISURE": null, "AMENITY": null, "OFFICE": null, "SHOP": null, "TOURISM": null, "SPORT": "scuba_diving", "OSM_TYPE": "node", "OSM_ID": 663869405 }, "geometry": { "type": "Point", "coordinates": [ -68.2805412, 12.0701968 ] } },
{ "type": "Feature", "properties": { "NAME": "Atlantis", "NAME_EN": null, "MAN_MADE": null, "LEISURE": null, "AMENITY": null, "OFFICE": null, "SHOP": null, "TOURISM": null, "SPORT": "scuba_diving", "OSM_TYPE": "node", "OSM_ID": 663869406 }, "geometry": { "type": "Point", "coordinates": [ -68.267482, 12.0448994 ] } },
{ "type": "Feature", "properties": { "NAME": "Red Beryl", "NAME_EN": null, "MAN_MADE": null, "LEISURE": null, "AMENITY": null, "OFFICE": null, "SHOP": null, "TOURISM": null, "SPORT": "scuba_diving", "OSM_TYPE": "node", "OSM_ID": 663869407 }, "geometry": { "type": "Point", "coordinates": [ -68.2685291, 12.0466404 ] } },
{ "type": "Feature", "properties": { "NAME": "White Slave", "NAME_EN": null, "MAN_MADE": null, "LEISURE": null, "AMENITY": null, "OFFICE": null, "SHOP": null, "TOURISM": null, "SPORT": "scuba_diving", "OSM_TYPE": "node", "OSM_ID": 663869408 }, "geometry": { "type": "Point", "coordinates": [ -68.2812043, 12.0575572 ] } },
{ "type": "Feature", "properties": { "NAME": "Aquarius", "NAME_EN": null, "MAN_MADE": null, "LEISURE": null, "AMENITY": null, "OFFICE": null, "SHOP": null, "TOURISM": null, "SPORT": "scuba_diving", "OSM_TYPE": "node", "OSM_ID": 663869409 }, "geometry": { "type": "Point", "coordinates": [ -68.284795, 12.0983883 ] } },
{ "type": "Feature", "properties": { "NAME": "Larry's Lair", "NAME_EN": null, "MAN_MADE": null, "LEISURE": null, "AMENITY": null, "OFFICE": null, "SHOP": null, "TOURISM": null, "SPORT": "scuba_diving", "OSM_TYPE": "node", "OSM_ID": 663869410 }, "geometry": { "type": "Point", "coordinates": [ -68.2840519, 12.0952821 ] } },
{ "type": "Feature", "properties": { "NAME": "Blue Hole", "NAME_EN": null, "MAN_MADE": null, "LEISURE": null, "AMENITY": null, "OFFICE": null, "SHOP": null, "TOURISM": null, "SPORT": "scuba_diving", "OSM_TYPE": "node", "OSM_ID": 663869411 }, "geometry": { "type": "Point", "coordinates": [ -68.2280778, 12.0940583 ] } },
{ "type": "Feature", "properties": { "NAME": "Jeannie's Glory", "NAME_EN": null, "MAN_MADE": null, "LEISURE": null, "AMENITY": null, "OFFICE": null, "SHOP": null, "TOURISM": null, "SPORT": "scuba_diving", "OSM_TYPE": "node", "OSM_ID": 663869412 }, "geometry": { "type": "Point", "coordinates": [ -68.282629, 12.0867114 ] } },
{ "type": "Feature", "properties": { "NAME": "Bachelor`s Beach", "NAME_EN": null, "MAN_MADE": null, "LEISURE": null, "AMENITY": null, "OFFICE": null, "SHOP": null, "TOURISM": null, "SPORT": "scuba_diving", "OSM_TYPE": "node", "OSM_ID": 663869413 }, "geometry": { "type": "Point", "coordinates": [ -68.2873207, 12.1255594 ] } },
{ "type": "Feature", "properties": { "NAME": "Angel City", "NAME_EN": null, "MAN_MADE": null, "LEISURE": null, "AMENITY": null, "OFFICE": null, "SHOP": null, "TOURISM": null, "SPORT": "scuba_diving", "OSM_TYPE": "node", "OSM_ID": 663869415 }, "geometry": { "type": "Point", "coordinates": [ -68.2872133, 12.1033916 ] } },
{ "type": "Feature", "properties": { "NAME": "Cai", "NAME_EN": null, "MAN_MADE": null, "LEISURE": null, "AMENITY": null, "OFFICE": null, "SHOP": null, "TOURISM": null, "SPORT": "scuba_diving", "OSM_TYPE": "node", "OSM_ID": 663869416 }, "geometry": { "type": "Point", "coordinates": [ -68.2224528, 12.1032167 ] } },
{ "type": "Feature", "properties": { "NAME": "The Lake", "NAME_EN": null, "MAN_MADE": null, "LEISURE": null, "AMENITY": null, "OFFICE": null, "SHOP": null, "TOURISM": null, "SPORT": "scuba_diving", "OSM_TYPE": "node", "OSM_ID": 663869417 }, "geometry": { "type": "Point", "coordinates": [ -68.29, 12.1071283 ] } },
{ "type": "Feature", "properties": { "NAME": "Boka Slagbaai", "NAME_EN": null, "MAN_MADE": null, "LEISURE": null, "AMENITY": null, "OFFICE": null, "SHOP": null, "TOURISM": null, "SPORT": "scuba_diving", "OSM_TYPE": "node", "OSM_ID": 663869419 }, "geometry": { "type": "Point", "coordinates": [ -68.4135635, 12.2646664 ] } },
{ "type": "Feature", "properties": { "NAME": "Playa Benge", "NAME_EN": null, "MAN_MADE": null, "LEISURE": null, "AMENITY": null, "OFFICE": null, "SHOP": null, "TOURISM": null, "SPORT": "scuba_diving", "OSM_TYPE": "node", "OSM_ID": 663869420 }, "geometry": { "type": "Point", "coordinates": [ -68.4119809, 12.2902417 ] } },
{ "type": "Feature", "properties": { "NAME": "Playa Funchi", "NAME_EN": null, "MAN_MADE": null, "LEISURE": null, "AMENITY": null, "OFFICE": null, "SHOP": null, "TOURISM": null, "SPORT": "scuba_diving", "OSM_TYPE": "node", "OSM_ID": 663869421 }, "geometry": { "type": "Point", "coordinates": [ -68.4140883, 12.28223 ] } },
{ "type": "Feature", "properties": { "NAME": "Nukove", "NAME_EN": null, "MAN_MADE": null, "LEISURE": null, "AMENITY": null, "OFFICE": null, "SHOP": null, "TOURISM": null, "SPORT": "scuba_diving", "OSM_TYPE": "node", "OSM_ID": 663869422 }, "geometry": { "type": "Point", "coordinates": [ -68.4128282, 12.2407008 ] } },
{ "type": "Feature", "properties": { "NAME": "Calabas Reef", "NAME_EN": null, "MAN_MADE": null, "LEISURE": null, "AMENITY": null, "OFFICE": null, "SHOP": null, "TOURISM": null, "SPORT": "scuba_diving", "OSM_TYPE": "node", "OSM_ID": 663869423 }, "geometry": { "type": "Point", "coordinates": [ -68.2760033, 12.1444233 ] } },
{ "type": "Feature", "properties": { "NAME": "Oil Slick Leap", "NAME_EN": null, "MAN_MADE": null, "LEISURE": null, "AMENITY": null, "OFFICE": null, "SHOP": null, "TOURISM": null, "SPORT": "scuba_diving", "OSM_TYPE": "node", "OSM_ID": 663869425 }, "geometry": { "type": "Point", "coordinates": [ -68.3086133, 12.2002683 ] } },
{ "type": "Feature", "properties": { "NAME": "Andrea I", "NAME_EN": null, "MAN_MADE": null, "LEISURE": null, "AMENITY": null, "OFFICE": null, "SHOP": null, "TOURISM": null, "SPORT": "scuba_diving", "OSM_TYPE": "node", "OSM_ID": 663869426 }, "geometry": { "type": "Point", "coordinates": [ -68.2966367, 12.1880187 ] } },
{ "type": "Feature", "properties": { "NAME": "Boka di Tolo", "NAME_EN": null, "MAN_MADE": null, "LEISURE": null, "AMENITY": null, "OFFICE": null, "SHOP": null, "TOURISM": null, "SPORT": "scuba_diving", "OSM_TYPE": "node", "OSM_ID": 663869427 }, "geometry": { "type": "Point", "coordinates": [ -68.3374389, 12.2152361 ] } },
{ "type": "Feature", "properties": { "NAME": "Andrea II", "NAME_EN": null, "MAN_MADE": null, "LEISURE": null, "AMENITY": null, "OFFICE": null, "SHOP": null, "TOURISM": null, "SPORT": "scuba_diving", "OSM_TYPE": "node", "OSM_ID": 663869429 }, "geometry": { "type": "Point", "coordinates": [ -68.2977439, 12.1914079 ] } },
{ "type": "Feature", "properties": { "NAME": "Windsock", "NAME_EN": null, "MAN_MADE": null, "LEISURE": null, "AMENITY": null, "OFFICE": null, "SHOP": null, "TOURISM": null, "SPORT": "scuba_diving", "OSM_TYPE": "node", "OSM_ID": 663869430 }, "geometry": { "type": "Point", "coordinates": [ -68.2816616, 12.1333083 ] } },
{ "type": "Feature", "properties": { "NAME": "North Belnem / Corporal Meiss", "NAME_EN": null, "MAN_MADE": null, "LEISURE": null, "AMENITY": null, "OFFICE": null, "SHOP": null, "TOURISM": null, "SPORT": "scuba_diving", "OSM_TYPE": "node", "OSM_ID": 663869432 }, "geometry": { "type": "Point", "coordinates": [ -68.28459, 12.1306383 ] } },
{ "type": "Feature", "properties": { "NAME": "Cliff", "NAME_EN": null, "MAN_MADE": null, "LEISURE": null, "AMENITY": null, "OFFICE": null, "SHOP": null, "TOURISM": null, "SPORT": "scuba_diving", "OSM_TYPE": "node", "OSM_ID": 663869433 }, "geometry": { "type": "Point", "coordinates": [ -68.2894267, 12.1733517 ] } },
{ "type": "Feature", "properties": { "NAME": "Buddy`s Reef", "NAME_EN": null, "MAN_MADE": null, "LEISURE": null, "AMENITY": null, "OFFICE": null, "SHOP": null, "TOURISM": null, "SPORT": "scuba_diving", "OSM_TYPE": "node", "OSM_ID": 663869435 }, "geometry": { "type": "Point", "coordinates": [ -68.2883867, 12.1705246 ] } },
{ "type": "Feature", "properties": { "NAME": "Reef Scientifico", "NAME_EN": null, "MAN_MADE": null, "LEISURE": null, "AMENITY": null, "OFFICE": null, "SHOP": null, "TOURISM": null, "SPORT": "scuba_diving", "OSM_TYPE": "node", "OSM_ID": 663869438 }, "geometry": { "type": "Point", "coordinates": [ -68.2892583, 12.1713556 ] } },
{ "type": "Feature", "properties": { "NAME": "Karpata", "NAME_EN": null, "MAN_MADE": null, "LEISURE": null, "AMENITY": null, "OFFICE": null, "SHOP": null, "TOURISM": null, "SPORT": "scuba_diving", "OSM_TYPE": "node", "OSM_ID": 663869440 }, "geometry": { "type": "Point", "coordinates": [ -68.3521324, 12.2192934 ] } },
{ "type": "Feature", "properties": { "NAME": "La Denia`s Leap", "NAME_EN": null, "MAN_MADE": null, "LEISURE": null, "AMENITY": null, "OFFICE": null, "SHOP": null, "TOURISM": null, "SPORT": "scuba_diving", "OSM_TYPE": "node", "OSM_ID": 663869441 }, "geometry": { "type": "Point", "coordinates": [ -68.3481483, 12.2181417 ] } },
{ "type": "Feature", "properties": { "NAME": "Boka Bartol", "NAME_EN": null, "MAN_MADE": null, "LEISURE": null, "AMENITY": null, "OFFICE": null, "SHOP": null, "TOURISM": null, "SPORT": "scuba_diving", "OSM_TYPE": "node", "OSM_ID": 663869442 }, "geometry": { "type": "Point", "coordinates": [ -68.3975477, 12.3048091 ] } },
{ "type": "Feature", "properties": { "NAME": "Black Durgon Inn", "NAME_EN": null, "MAN_MADE": null, "LEISURE": null, "AMENITY": null, "OFFICE": null, "SHOP": null, "TOURISM": "hotel", "SPORT": null, "OSM_TYPE": "node", "OSM_ID": 853861178 }, "geometry": { "type": "Point", "coordinates": [ -68.2928837, 12.1804499 ] } },
{ "type": "Feature", "properties": { "NAME": "18th Palm", "NAME_EN": null, "MAN_MADE": null, "LEISURE": null, "AMENITY": null, "OFFICE": null, "SHOP": null, "TOURISM": null, "SPORT": "scuba_diving", "OSM_TYPE": "node", "OSM_ID": 854130076 }, "geometry": { "type": "Point", "coordinates": [ -68.276509600000011, 12.138643 ] } },
{ "type": "Feature", "properties": { "NAME": "Carel's Vision", "NAME_EN": null, "MAN_MADE": null, "LEISURE": null, "AMENITY": null, "OFFICE": null, "SHOP": null, "TOURISM": null, "SPORT": "scuba_diving", "OSM_TYPE": "node", "OSM_ID": 854130125 }, "geometry": { "type": "Point", "coordinates": [ -68.4127451, 12.230709 ] } },
{ "type": "Feature", "properties": { "NAME": "Taylor Made", "NAME_EN": null, "MAN_MADE": null, "LEISURE": null, "AMENITY": null, "OFFICE": null, "SHOP": null, "TOURISM": null, "SPORT": "scuba_diving", "OSM_TYPE": "node", "OSM_ID": 854130146 }, "geometry": { "type": "Point", "coordinates": [ -68.4036763, 12.2230317 ] } },
{ "type": "Feature", "properties": { "NAME": "Mati Mati", "NAME_EN": null, "MAN_MADE": null, "LEISURE": null, "AMENITY": null, "OFFICE": null, "SHOP": null, "TOURISM": "attraction", "SPORT": null, "OSM_TYPE": "node", "OSM_ID": 857054376 }, "geometry": { "type": "Point", "coordinates": [ -68.3092708, 12.2487036 ] } },
{ "type": "Feature", "properties": { "NAME": "Marca Indian Inscriptions", "NAME_EN": null, "MAN_MADE": null, "LEISURE": null, "AMENITY": null, "OFFICE": null, "SHOP": null, "TOURISM": "attraction", "SPORT": null, "OSM_TYPE": "node", "OSM_ID": 857054401 }, "geometry": { "type": "Point", "coordinates": [ -68.3105806, 12.249141 ] } },
{ "type": "Feature", "properties": { "NAME": "Piedra di Bonaire", "NAME_EN": null, "MAN_MADE": null, "LEISURE": null, "AMENITY": null, "OFFICE": null, "SHOP": null, "TOURISM": "attraction", "SPORT": null, "OSM_TYPE": "node", "OSM_ID": 857054405 }, "geometry": { "type": "Point", "coordinates": [ -68.3231594, 12.2581584 ] } },
{ "type": "Feature", "properties": { "NAME": "Breezers and Bites", "NAME_EN": null, "MAN_MADE": null, "LEISURE": null, "AMENITY": "restaurant", "OFFICE": null, "SHOP": null, "TOURISM": null, "SPORT": null, "OSM_TYPE": "node", "OSM_ID": 858691217 }, "geometry": { "type": "Point", "coordinates": [ -68.2871162, 12.1676746 ] } },
{ "type": "Feature", "properties": { "NAME": "Sebastian's", "NAME_EN": null, "MAN_MADE": null, "LEISURE": null, "AMENITY": "restaurant", "OFFICE": null, "SHOP": null, "TOURISM": null, "SPORT": null, "OSM_TYPE": "node", "OSM_ID": 1277196793 }, "geometry": { "type": "Point", "coordinates": [ -68.2758352, 12.1406197 ] } },
{ "type": "Feature", "properties": { "NAME": "Antillean Wine Company", "NAME_EN": null, "MAN_MADE": null, "LEISURE": null, "AMENITY": null, "OFFICE": null, "SHOP": "alcohol", "TOURISM": null, "SPORT": null, "OSM_TYPE": "node", "OSM_ID": 1277731686 }, "geometry": { "type": "Point", "coordinates": [ -68.27073750000001, 12.1447295 ] } },
{ "type": "Feature", "properties": { "NAME": null, "NAME_EN": null, "MAN_MADE": null, "LEISURE": null, "AMENITY": "car_rental", "OFFICE": null, "SHOP": null, "TOURISM": null, "SPORT": null, "OSM_TYPE": "node", "OSM_ID": 1307010503 }, "geometry": { "type": "Point", "coordinates": [ -68.2778181, 12.1337093 ] } },
{ "type": "Feature", "properties": { "NAME": "Harbour Village Marina", "NAME_EN": null, "MAN_MADE": null, "LEISURE": "marina", "AMENITY": null, "OFFICE": null, "SHOP": null, "TOURISM": null, "SPORT": null, "OSM_TYPE": "node", "OSM_ID": 1345508312 }, "geometry": { "type": "Point", "coordinates": [ -68.2848859, 12.1638142 ] } },
{ "type": "Feature", "properties": { "NAME": "Bonaco", "NAME_EN": null, "MAN_MADE": null, "LEISURE": null, "AMENITY": null, "OFFICE": null, "SHOP": null, "TOURISM": "hotel", "SPORT": null, "OSM_TYPE": "node", "OSM_ID": 1411669861 }, "geometry": { "type": "Point", "coordinates": [ -68.2723177, 12.1438518 ] } },
{ "type": "Feature", "properties": { "NAME": "Playa Frans", "NAME_EN": null, "MAN_MADE": null, "LEISURE": null, "AMENITY": null, "OFFICE": null, "SHOP": null, "TOURISM": null, "SPORT": "scuba_diving", "OSM_TYPE": "node", "OSM_ID": 1420984806 }, "geometry": { "type": "Point", "coordinates": [ -68.4141402, 12.245742 ] } },
{ "type": "Feature", "properties": { "NAME": "The Rock", "NAME_EN": null, "MAN_MADE": null, "LEISURE": null, "AMENITY": null, "OFFICE": null, "SHOP": null, "TOURISM": null, "SPORT": "scuba_diving", "OSM_TYPE": "node", "OSM_ID": 1420984809 }, "geometry": { "type": "Point", "coordinates": [ -68.2799587, 12.0760025 ] } },
{ "type": "Feature", "properties": { "NAME": "Warehouse Supermarket", "NAME_EN": null, "MAN_MADE": null, "LEISURE": null, "AMENITY": null, "OFFICE": null, "SHOP": "supermarket", "TOURISM": null, "SPORT": null, "OSM_TYPE": "node", "OSM_ID": 2323714885 }, "geometry": { "type": "Point", "coordinates": [ -68.2695072, 12.1441897 ] } },
{ "type": "Feature", "properties": { "NAME": null, "NAME_EN": null, "MAN_MADE": null, "LEISURE": null, "AMENITY": "police", "OFFICE": null, "SHOP": null, "TOURISM": null, "SPORT": null, "OSM_TYPE": "node", "OSM_ID": 2324286677 }, "geometry": { "type": "Point", "coordinates": [ -68.275635200000011, 12.1498013 ] } },
{ "type": "Feature", "properties": { "NAME": null, "NAME_EN": null, "MAN_MADE": null, "LEISURE": null, "AMENITY": "atm", "OFFICE": null, "SHOP": null, "TOURISM": null, "SPORT": null, "OSM_TYPE": "node", "OSM_ID": 2324399878 }, "geometry": { "type": "Point", "coordinates": [ -68.2670787, 12.144896 ] } },
{ "type": "Feature", "properties": { "NAME": "MCB", "NAME_EN": null, "MAN_MADE": null, "LEISURE": null, "AMENITY": "atm", "OFFICE": null, "SHOP": null, "TOURISM": null, "SPORT": null, "OSM_TYPE": "node", "OSM_ID": 2324399881 }, "geometry": { "type": "Point", "coordinates": [ -68.2692508, 12.144186 ] } },
{ "type": "Feature", "properties": { "NAME": null, "NAME_EN": null, "MAN_MADE": null, "LEISURE": null, "AMENITY": "atm", "OFFICE": null, "SHOP": null, "TOURISM": null, "SPORT": null, "OSM_TYPE": "node", "OSM_ID": 2324399882 }, "geometry": { "type": "Point", "coordinates": [ -68.2770645, 12.133274 ] } },
{ "type": "Feature", "properties": { "NAME": null, "NAME_EN": null, "MAN_MADE": null, "LEISURE": null, "AMENITY": "atm", "OFFICE": null, "SHOP": null, "TOURISM": null, "SPORT": null, "OSM_TYPE": "node", "OSM_ID": 2324399884 }, "geometry": { "type": "Point", "coordinates": [ -68.2709854, 12.1649246 ] } },
{ "type": "Feature", "properties": { "NAME": "MCB", "NAME_EN": null, "MAN_MADE": null, "LEISURE": null, "AMENITY": "atm", "OFFICE": null, "SHOP": null, "TOURISM": null, "SPORT": null, "OSM_TYPE": "node", "OSM_ID": 2324399885 }, "geometry": { "type": "Point", "coordinates": [ -68.2660614, 12.1444493 ] } },
{ "type": "Feature", "properties": { "NAME": "Windjammer", "NAME_EN": null, "MAN_MADE": null, "LEISURE": null, "AMENITY": null, "OFFICE": null, "SHOP": null, "TOURISM": null, "SPORT": "scuba_diving", "OSM_TYPE": "node", "OSM_ID": 2625769975 }, "geometry": { "type": "Point", "coordinates": [ -68.3753404, 12.2202758 ] } },
{ "type": "Feature", "properties": { "NAME": "Suplado (blowhole)", "NAME_EN": null, "MAN_MADE": null, "LEISURE": null, "AMENITY": null, "OFFICE": null, "SHOP": null, "TOURISM": "viewpoint", "SPORT": null, "OSM_TYPE": "node", "OSM_ID": 2936588676 }, "geometry": { "type": "Point", "coordinates": [ -68.3576694, 12.2955156 ] } },
{ "type": "Feature", "properties": { "NAME": "Punto Blanco", "NAME_EN": null, "MAN_MADE": null, "LEISURE": null, "AMENITY": null, "OFFICE": null, "SHOP": null, "TOURISM": "viewpoint", "SPORT": null, "OSM_TYPE": "node", "OSM_ID": 2936588677 }, "geometry": { "type": "Point", "coordinates": [ -68.2093057, 12.180217 ] } },
{ "type": "Feature", "properties": { "NAME": "Maiky Snack", "NAME_EN": null, "MAN_MADE": null, "LEISURE": null, "AMENITY": "restaurant", "OFFICE": null, "SHOP": null, "TOURISM": null, "SPORT": null, "OSM_TYPE": "node", "OSM_ID": 2936588678 }, "geometry": { "type": "Point", "coordinates": [ -68.2446384, 12.1404483 ] } },
{ "type": "Feature", "properties": { "NAME": "Carribean Chillout", "NAME_EN": null, "MAN_MADE": null, "LEISURE": null, "AMENITY": null, "OFFICE": null, "SHOP": null, "TOURISM": "hotel", "SPORT": null, "OSM_TYPE": "node", "OSM_ID": 2936632733 }, "geometry": { "type": "Point", "coordinates": [ -68.2650902, 12.1366753 ] } },
{ "type": "Feature", "properties": { "NAME": "Jos", "NAME_EN": null, "MAN_MADE": null, "LEISURE": null, "AMENITY": "cafe", "OFFICE": null, "SHOP": null, "TOURISM": null, "SPORT": null, "OSM_TYPE": "node", "OSM_ID": 3220935352 }, "geometry": { "type": "Point", "coordinates": [ -68.2399227, 12.1443317 ] } },
{ "type": "Feature", "properties": { "NAME": null, "NAME_EN": null, "MAN_MADE": null, "LEISURE": "slipway", "AMENITY": null, "OFFICE": null, "SHOP": null, "TOURISM": null, "SPORT": null, "OSM_TYPE": "node", "OSM_ID": 3226378865 }, "geometry": { "type": "Point", "coordinates": [ -68.2918805, 12.1764438 ] } },
{ "type": "Feature", "properties": { "NAME": "Slipway Catalina Diaz Leonora", "NAME_EN": null, "MAN_MADE": null, "LEISURE": "slipway", "AMENITY": null, "OFFICE": null, "SHOP": null, "TOURISM": null, "SPORT": null, "OSM_TYPE": "node", "OSM_ID": 3232741626 }, "geometry": { "type": "Point", "coordinates": [ -68.2760217, 12.141023 ] } },
{ "type": "Feature", "properties": { "NAME": "Mangrove Info Center", "NAME_EN": null, "MAN_MADE": null, "LEISURE": null, "AMENITY": null, "OFFICE": null, "SHOP": null, "TOURISM": "attraction", "SPORT": null, "OSM_TYPE": "node", "OSM_ID": 3258954979 }, "geometry": { "type": "Point", "coordinates": [ -68.2208799, 12.1163183 ] } },
{ "type": "Feature", "properties": { "NAME": "Most Southern Point of Bonaire", "NAME_EN": null, "MAN_MADE": "survey_point", "LEISURE": null, "AMENITY": null, "OFFICE": null, "SHOP": null, "TOURISM": null, "SPORT": null, "OSM_TYPE": "node", "OSM_ID": 3283759396 }, "geometry": { "type": "Point", "coordinates": [ -68.2491475, 12.0248163 ] } },
{ "type": "Feature", "properties": { "NAME": null, "NAME_EN": null, "MAN_MADE": "tower", "LEISURE": null, "AMENITY": null, "OFFICE": null, "SHOP": null, "TOURISM": null, "SPORT": null, "OSM_TYPE": "node", "OSM_ID": 3386782099 }, "geometry": { "type": "Point", "coordinates": [ -68.3215665, 12.2172467 ] } },
{ "type": "Feature", "properties": { "NAME": null, "NAME_EN": null, "MAN_MADE": "tower", "LEISURE": null, "AMENITY": null, "OFFICE": null, "SHOP": null, "TOURISM": null, "SPORT": null, "OSM_TYPE": "node", "OSM_ID": 3386782101 }, "geometry": { "type": "Point", "coordinates": [ -68.326182100000011, 12.217115 ] } },
{ "type": "Feature", "properties": { "NAME": null, "NAME_EN": null, "MAN_MADE": "tower", "LEISURE": null, "AMENITY": null, "OFFICE": null, "SHOP": null, "TOURISM": null, "SPORT": null, "OSM_TYPE": "node", "OSM_ID": 3386782106 }, "geometry": { "type": "Point", "coordinates": [ -68.32125, 12.217152 ] } },
{ "type": "Feature", "properties": { "NAME": null, "NAME_EN": null, "MAN_MADE": "tower", "LEISURE": null, "AMENITY": null, "OFFICE": null, "SHOP": null, "TOURISM": null, "SPORT": null, "OSM_TYPE": "node", "OSM_ID": 3386782107 }, "geometry": { "type": "Point", "coordinates": [ -68.3213412, 12.2173778 ] } },
{ "type": "Feature", "properties": { "NAME": null, "NAME_EN": null, "MAN_MADE": "tower", "LEISURE": null, "AMENITY": null, "OFFICE": null, "SHOP": null, "TOURISM": null, "SPORT": null, "OSM_TYPE": "node", "OSM_ID": 3386782108 }, "geometry": { "type": "Point", "coordinates": [ -68.3220064, 12.2161824 ] } },
{ "type": "Feature", "properties": { "NAME": null, "NAME_EN": null, "MAN_MADE": null, "LEISURE": null, "AMENITY": "parking", "OFFICE": null, "SHOP": null, "TOURISM": null, "SPORT": null, "OSM_TYPE": "node", "OSM_ID": 3386792315 }, "geometry": { "type": "Point", "coordinates": [ -68.3087249, 12.2005356 ] } },
{ "type": "Feature", "properties": { "NAME": null, "NAME_EN": null, "MAN_MADE": null, "LEISURE": null, "AMENITY": "parking", "OFFICE": null, "SHOP": null, "TOURISM": null, "SPORT": null, "OSM_TYPE": "node", "OSM_ID": 3386792321 }, "geometry": { "type": "Point", "coordinates": [ -68.2965415, 12.1880158 ] } },
{ "type": "Feature", "properties": { "NAME": null, "NAME_EN": null, "MAN_MADE": null, "LEISURE": null, "AMENITY": "parking", "OFFICE": null, "SHOP": null, "TOURISM": null, "SPORT": null, "OSM_TYPE": "node", "OSM_ID": 3396136900 }, "geometry": { "type": "Point", "coordinates": [ -68.33717390000001, 12.2154821 ] } },
{ "type": "Feature", "properties": { "NAME": "I Love Bonaire", "NAME_EN": null, "MAN_MADE": null, "LEISURE": null, "AMENITY": null, "OFFICE": null, "SHOP": "clothes", "TOURISM": null, "SPORT": null, "OSM_TYPE": "node", "OSM_ID": 3550765045 }, "geometry": { "type": "Point", "coordinates": [ -68.27625110000001, 12.1518727 ] } },
{ "type": "Feature", "properties": { "NAME": "VIP Diving", "NAME_EN": null, "MAN_MADE": null, "LEISURE": null, "AMENITY": null, "OFFICE": null, "SHOP": "outdoor", "TOURISM": null, "SPORT": null, "OSM_TYPE": "node", "OSM_ID": 3580671693 }, "geometry": { "type": "Point", "coordinates": [ -68.2756986, 12.1394395 ] } },
{ "type": "Feature", "properties": { "NAME": "Caribe Watersport and Watertaxi", "NAME_EN": null, "MAN_MADE": null, "LEISURE": null, "AMENITY": "ferry_terminal", "OFFICE": null, "SHOP": null, "TOURISM": null, "SPORT": "water_ski", "OSM_TYPE": "node", "OSM_ID": 3637980732 }, "geometry": { "type": "Point", "coordinates": [ -68.2873271, 12.1643726 ] } },
{ "type": "Feature", "properties": { "NAME": null, "NAME_EN": null, "MAN_MADE": null, "LEISURE": null, "AMENITY": "ferry_terminal", "OFFICE": null, "SHOP": null, "TOURISM": null, "SPORT": null, "OSM_TYPE": "node", "OSM_ID": 3637980736 }, "geometry": { "type": "Point", "coordinates": [ -68.305365, 12.1684224 ] } },
{ "type": "Feature", "properties": { "NAME": "Pos Bara Di Karta", "NAME_EN": null, "MAN_MADE": "windpump", "LEISURE": null, "AMENITY": null, "OFFICE": null, "SHOP": null, "TOURISM": null, "SPORT": null, "OSM_TYPE": "node", "OSM_ID": 3658680216 }, "geometry": { "type": "Point", "coordinates": [ -68.2311162, 12.1591097 ] } },
{ "type": "Feature", "properties": { "NAME": "Klein Bonaire Watertaxi", "NAME_EN": null, "MAN_MADE": null, "LEISURE": null, "AMENITY": null, "OFFICE": null, "SHOP": null, "TOURISM": "attraction", "SPORT": null, "OSM_TYPE": "node", "OSM_ID": 3675116157 }, "geometry": { "type": "Point", "coordinates": [ -68.2784809, 12.153417 ] } },
{ "type": "Feature", "properties": { "NAME": "Marca Indian Inscriptions", "NAME_EN": null, "MAN_MADE": null, "LEISURE": null, "AMENITY": null, "OFFICE": null, "SHOP": null, "TOURISM": "attraction", "SPORT": null, "OSM_TYPE": "node", "OSM_ID": 3698426243 }, "geometry": { "type": "Point", "coordinates": [ -68.3110922, 12.2496826 ] } },
{ "type": "Feature", "properties": { "NAME": null, "NAME_EN": null, "MAN_MADE": null, "LEISURE": null, "AMENITY": "parking_entrance", "OFFICE": null, "SHOP": null, "TOURISM": null, "SPORT": null, "OSM_TYPE": "node", "OSM_ID": 3704070981 }, "geometry": { "type": "Point", "coordinates": [ -68.2780633, 12.1529154 ] } },
{ "type": "Feature", "properties": { "NAME": null, "NAME_EN": null, "MAN_MADE": null, "LEISURE": null, "AMENITY": "atm", "OFFICE": null, "SHOP": null, "TOURISM": null, "SPORT": null, "OSM_TYPE": "node", "OSM_ID": 3706066965 }, "geometry": { "type": "Point", "coordinates": [ -68.2762874, 12.1499135 ] } },
{ "type": "Feature", "properties": { "NAME": null, "NAME_EN": null, "MAN_MADE": null, "LEISURE": null, "AMENITY": "atm", "OFFICE": null, "SHOP": null, "TOURISM": null, "SPORT": null, "OSM_TYPE": "node", "OSM_ID": 3739834094 }, "geometry": { "type": "Point", "coordinates": [ -68.2678444, 12.1527912 ] } },
{ "type": "Feature", "properties": { "NAME": null, "NAME_EN": null, "MAN_MADE": null, "LEISURE": null, "AMENITY": "parking", "OFFICE": null, "SHOP": null, "TOURISM": null, "SPORT": null, "OSM_TYPE": "node", "OSM_ID": 3743498638 }, "geometry": { "type": "Point", "coordinates": [ -68.3091699, 12.2008224 ] } },
{ "type": "Feature", "properties": { "NAME": null, "NAME_EN": null, "MAN_MADE": null, "LEISURE": null, "AMENITY": "parking", "OFFICE": null, "SHOP": null, "TOURISM": null, "SPORT": null, "OSM_TYPE": "node", "OSM_ID": 3743498639 }, "geometry": { "type": "Point", "coordinates": [ -68.3102432, 12.201825 ] } },
{ "type": "Feature", "properties": { "NAME": null, "NAME_EN": null, "MAN_MADE": null, "LEISURE": null, "AMENITY": "parking", "OFFICE": null, "SHOP": null, "TOURISM": null, "SPORT": null, "OSM_TYPE": "node", "OSM_ID": 3743498640 }, "geometry": { "type": "Point", "coordinates": [ -68.3138402, 12.2051971 ] } },
{ "type": "Feature", "properties": { "NAME": null, "NAME_EN": null, "MAN_MADE": null, "LEISURE": null, "AMENITY": "parking", "OFFICE": null, "SHOP": null, "TOURISM": null, "SPORT": null, "OSM_TYPE": "node", "OSM_ID": 3743498641 }, "geometry": { "type": "Point", "coordinates": [ -68.3163567, 12.2066404 ] } },
{ "type": "Feature", "properties": { "NAME": null, "NAME_EN": null, "MAN_MADE": null, "LEISURE": null, "AMENITY": "parking", "OFFICE": null, "SHOP": null, "TOURISM": null, "SPORT": null, "OSM_TYPE": "node", "OSM_ID": 3743498642 }, "geometry": { "type": "Point", "coordinates": [ -68.3178407, 12.2075297 ] } },
{ "type": "Feature", "properties": { "NAME": null, "NAME_EN": null, "MAN_MADE": null, "LEISURE": null, "AMENITY": "parking", "OFFICE": null, "SHOP": null, "TOURISM": null, "SPORT": null, "OSM_TYPE": "node", "OSM_ID": 3743498644 }, "geometry": { "type": "Point", "coordinates": [ -68.3246309, 12.211324 ] } },
{ "type": "Feature", "properties": { "NAME": "Flamingo Casino", "NAME_EN": null, "MAN_MADE": null, "LEISURE": null, "AMENITY": "casino", "OFFICE": null, "SHOP": null, "TOURISM": null, "SPORT": null, "OSM_TYPE": "node", "OSM_ID": 3748219761 }, "geometry": { "type": "Point", "coordinates": [ -68.2756683, 12.1446455 ] } },
{ "type": "Feature", "properties": { "NAME": "Hua Feng Supermarket B.V.", "NAME_EN": null, "MAN_MADE": null, "LEISURE": null, "AMENITY": null, "OFFICE": null, "SHOP": "supermarket", "TOURISM": null, "SPORT": null, "OSM_TYPE": "node", "OSM_ID": 3748219770 }, "geometry": { "type": "Point", "coordinates": [ -68.2646015, 12.1389449 ] } },
{ "type": "Feature", "properties": { "NAME": "CAT", "NAME_EN": null, "MAN_MADE": null, "LEISURE": null, "AMENITY": null, "OFFICE": "company", "SHOP": null, "TOURISM": null, "SPORT": null, "OSM_TYPE": "node", "OSM_ID": 3748627036 }, "geometry": { "type": "Point", "coordinates": [ -68.2723121, 12.1449037 ] } },
{ "type": "Feature", "properties": { "NAME": "Brugman", "NAME_EN": null, "MAN_MADE": null, "LEISURE": null, "AMENITY": null, "OFFICE": "company", "SHOP": null, "TOURISM": null, "SPORT": null, "OSM_TYPE": "node", "OSM_ID": 3748627037 }, "geometry": { "type": "Point", "coordinates": [ -68.271947, 12.1449225 ] } },
{ "type": "Feature", "properties": { "NAME": null, "NAME_EN": null, "MAN_MADE": null, "LEISURE": null, "AMENITY": "telephone", "OFFICE": null, "SHOP": null, "TOURISM": null, "SPORT": null, "OSM_TYPE": "node", "OSM_ID": 3752195016 }, "geometry": { "type": "Point", "coordinates": [ -68.3299728, 12.2386073 ] } },
{ "type": "Feature", "properties": { "NAME": null, "NAME_EN": null, "MAN_MADE": null, "LEISURE": null, "AMENITY": "telephone", "OFFICE": null, "SHOP": null, "TOURISM": null, "SPORT": null, "OSM_TYPE": "node", "OSM_ID": 3756373307 }, "geometry": { "type": "Point", "coordinates": [ -68.3417438, 12.265488 ] } },
{ "type": "Feature", "properties": { "NAME": "Day Spa", "NAME_EN": null, "MAN_MADE": null, "LEISURE": null, "AMENITY": null, "OFFICE": null, "SHOP": "beauty", "TOURISM": null, "SPORT": null, "OSM_TYPE": "node", "OSM_ID": 3756589689 }, "geometry": { "type": "Point", "coordinates": [ -68.285971600000011, 12.16813 ] } },
{ "type": "Feature", "properties": { "NAME": null, "NAME_EN": null, "MAN_MADE": null, "LEISURE": "slipway", "AMENITY": null, "OFFICE": null, "SHOP": null, "TOURISM": null, "SPORT": null, "OSM_TYPE": "node", "OSM_ID": 3761509209 }, "geometry": { "type": "Point", "coordinates": [ -68.2377082, 12.094653 ] } },
{ "type": "Feature", "properties": { "NAME": null, "NAME_EN": null, "MAN_MADE": null, "LEISURE": "slipway", "AMENITY": null, "OFFICE": null, "SHOP": null, "TOURISM": null, "SPORT": null, "OSM_TYPE": "node", "OSM_ID": 3761543491 }, "geometry": { "type": "Point", "coordinates": [ -68.2773155, 12.1504306 ] } },
{ "type": "Feature", "properties": { "NAME": null, "NAME_EN": null, "MAN_MADE": null, "LEISURE": null, "AMENITY": "telephone", "OFFICE": null, "SHOP": null, "TOURISM": null, "SPORT": null, "OSM_TYPE": "node", "OSM_ID": 3763962800 }, "geometry": { "type": "Point", "coordinates": [ -68.2662215, 12.199538 ] } },
{ "type": "Feature", "properties": { "NAME": null, "NAME_EN": null, "MAN_MADE": null, "LEISURE": null, "AMENITY": "telephone", "OFFICE": null, "SHOP": null, "TOURISM": null, "SPORT": null, "OSM_TYPE": "node", "OSM_ID": 3764124045 }, "geometry": { "type": "Point", "coordinates": [ -68.2753517, 12.1762179 ] } },
{ "type": "Feature", "properties": { "NAME": null, "NAME_EN": null, "MAN_MADE": null, "LEISURE": null, "AMENITY": "recycling", "OFFICE": null, "SHOP": null, "TOURISM": null, "SPORT": null, "OSM_TYPE": "node", "OSM_ID": 3767545740 }, "geometry": { "type": "Point", "coordinates": [ -68.331399, 12.2338433 ] } },
{ "type": "Feature", "properties": { "NAME": "Caribe Supermarket", "NAME_EN": null, "MAN_MADE": null, "LEISURE": null, "AMENITY": null, "OFFICE": null, "SHOP": "supermarket", "TOURISM": null, "SPORT": null, "OSM_TYPE": "node", "OSM_ID": 3789921565 }, "geometry": { "type": "Point", "coordinates": [ -68.2658279, 12.1442883 ] } },
{ "type": "Feature", "properties": { "NAME": null, "NAME_EN": null, "MAN_MADE": "lighthouse", "LEISURE": null, "AMENITY": null, "OFFICE": null, "SHOP": null, "TOURISM": null, "SPORT": null, "OSM_TYPE": "node", "OSM_ID": 3790789305 }, "geometry": { "type": "Point", "coordinates": [ -68.3264578, 12.156718 ] } },
{ "type": "Feature", "properties": { "NAME": null, "NAME_EN": null, "MAN_MADE": null, "LEISURE": null, "AMENITY": "atm", "OFFICE": null, "SHOP": null, "TOURISM": null, "SPORT": null, "OSM_TYPE": "node", "OSM_ID": 3801328522 }, "geometry": { "type": "Point", "coordinates": [ -68.2758889, 12.1522627 ] } },
{ "type": "Feature", "properties": { "NAME": "MCB", "NAME_EN": null, "MAN_MADE": null, "LEISURE": null, "AMENITY": "atm", "OFFICE": null, "SHOP": null, "TOURISM": null, "SPORT": null, "OSM_TYPE": "node", "OSM_ID": 3801329765 }, "geometry": { "type": "Point", "coordinates": [ -68.2767572, 12.1523865 ] } },
{ "type": "Feature", "properties": { "NAME": "Kanti Awa", "NAME_EN": null, "MAN_MADE": null, "LEISURE": null, "AMENITY": "bar", "OFFICE": null, "SHOP": null, "TOURISM": null, "SPORT": null, "OSM_TYPE": "node", "OSM_ID": 3801331332 }, "geometry": { "type": "Point", "coordinates": [ -68.2797129, 12.1572727 ] } },
{ "type": "Feature", "properties": { "NAME": "Verenigde Protestantse Gemeente Bonaire", "NAME_EN": null, "MAN_MADE": null, "LEISURE": null, "AMENITY": "place_of_worship", "OFFICE": null, "SHOP": null, "TOURISM": null, "SPORT": null, "OSM_TYPE": "node", "OSM_ID": 3801333305 }, "geometry": { "type": "Point", "coordinates": [ -68.2765597, 12.1497533 ] } },
{ "type": "Feature", "properties": { "NAME": "Beer and Burgers", "NAME_EN": null, "MAN_MADE": null, "LEISURE": null, "AMENITY": "restaurant", "OFFICE": null, "SHOP": null, "TOURISM": null, "SPORT": null, "OSM_TYPE": "node", "OSM_ID": 3801333982 }, "geometry": { "type": "Point", "coordinates": [ -68.2742173, 12.152199 ] } },
{ "type": "Feature", "properties": { "NAME": "El Mundo", "NAME_EN": null, "MAN_MADE": null, "LEISURE": null, "AMENITY": "bar", "OFFICE": null, "SHOP": null, "TOURISM": null, "SPORT": null, "OSM_TYPE": "node", "OSM_ID": 3801334401 }, "geometry": { "type": "Point", "coordinates": [ -68.2767434, 12.1504612 ] } },
{ "type": "Feature", "properties": { "NAME": "La Cantina", "NAME_EN": null, "MAN_MADE": null, "LEISURE": null, "AMENITY": "restaurant", "OFFICE": null, "SHOP": null, "TOURISM": null, "SPORT": null, "OSM_TYPE": "node", "OSM_ID": 3801334404 }, "geometry": { "type": "Point", "coordinates": [ -68.2765604, 12.1503685 ] } },
{ "type": "Feature", "properties": { "NAME": "Le-Ma-se", "NAME_EN": null, "MAN_MADE": null, "LEISURE": null, "AMENITY": "restaurant", "OFFICE": null, "SHOP": null, "TOURISM": null, "SPORT": null, "OSM_TYPE": "node", "OSM_ID": 3801335110 }, "geometry": { "type": "Point", "coordinates": [ -68.3279887, 12.2394693 ] } },
{ "type": "Feature", "properties": { "NAME": "Sun Rentals Bonaire", "NAME_EN": null, "MAN_MADE": null, "LEISURE": null, "AMENITY": null, "OFFICE": null, "SHOP": null, "TOURISM": "hotel", "SPORT": null, "OSM_TYPE": "node", "OSM_ID": 3801337047 }, "geometry": { "type": "Point", "coordinates": [ -68.2780701, 12.1545405 ] } },
{ "type": "Feature", "properties": { "NAME": "Papa Cornes School", "NAME_EN": "Kolegio Rayo Di Solo", "MAN_MADE": null, "LEISURE": null, "AMENITY": "school", "OFFICE": null, "SHOP": null, "TOURISM": null, "SPORT": null, "OSM_TYPE": "node", "OSM_ID": 3801337967 }, "geometry": { "type": "Point", "coordinates": [ -68.2740361, 12.1716438 ] } },
{ "type": "Feature", "properties": { "NAME": null, "NAME_EN": null, "MAN_MADE": null, "LEISURE": null, "AMENITY": "atm", "OFFICE": null, "SHOP": null, "TOURISM": null, "SPORT": null, "OSM_TYPE": "node", "OSM_ID": 3801340647 }, "geometry": { "type": "Point", "coordinates": [ -68.3297053, 12.2384653 ] } },
{ "type": "Feature", "properties": { "NAME": "Rose Inn local Food", "NAME_EN": null, "MAN_MADE": null, "LEISURE": null, "AMENITY": "restaurant", "OFFICE": null, "SHOP": null, "TOURISM": null, "SPORT": null, "OSM_TYPE": "node", "OSM_ID": 3801342311 }, "geometry": { "type": "Point", "coordinates": [ -68.3298957, 12.2371993 ] } },
{ "type": "Feature", "properties": { "NAME": "MCB", "NAME_EN": null, "MAN_MADE": null, "LEISURE": null, "AMENITY": "atm", "OFFICE": null, "SHOP": null, "TOURISM": null, "SPORT": null, "OSM_TYPE": "node", "OSM_ID": 3801348127 }, "geometry": { "type": "Point", "coordinates": [ -68.2662039, 12.1445511 ] } },
{ "type": "Feature", "properties": { "NAME": "Van den Tweel Supermarket", "NAME_EN": null, "MAN_MADE": null, "LEISURE": null, "AMENITY": null, "OFFICE": null, "SHOP": "supermarket", "TOURISM": null, "SPORT": null, "OSM_TYPE": "node", "OSM_ID": 3801348565 }, "geometry": { "type": "Point", "coordinates": [ -68.267086400000011, 12.1447259 ] } },
{ "type": "Feature", "properties": { "NAME": "Chachacha Beach", "NAME_EN": null, "MAN_MADE": null, "LEISURE": null, "AMENITY": null, "OFFICE": null, "SHOP": null, "TOURISM": null, "SPORT": "scuba_diving", "OSM_TYPE": "node", "OSM_ID": 4017913908 }, "geometry": { "type": "Point", "coordinates": [ -68.276318, 12.1460122 ] } },
{ "type": "Feature", "properties": { "NAME": "Pelikaan School", "NAME_EN": null, "MAN_MADE": null, "LEISURE": null, "AMENITY": "school", "OFFICE": null, "SHOP": null, "TOURISM": null, "SPORT": null, "OSM_TYPE": "node", "OSM_ID": 4172023089 }, "geometry": { "type": "Point", "coordinates": [ -68.28433050000001, 12.1681151 ] } },
{ "type": "Feature", "properties": { "NAME": "Seadonkey Lodge", "NAME_EN": null, "MAN_MADE": null, "LEISURE": null, "AMENITY": null, "OFFICE": null, "SHOP": null, "TOURISM": "guest_house", "SPORT": null, "OSM_TYPE": "node", "OSM_ID": 4179007004 }, "geometry": { "type": "Point", "coordinates": [ -68.2858416, 12.1223381 ] } },
{ "type": "Feature", "properties": { "NAME": null, "NAME_EN": null, "MAN_MADE": null, "LEISURE": null, "AMENITY": "parking", "OFFICE": null, "SHOP": null, "TOURISM": null, "SPORT": null, "OSM_TYPE": "node", "OSM_ID": 4198985504 }, "geometry": { "type": "Point", "coordinates": [ -68.2735446, 12.2133538 ] } },
{ "type": "Feature", "properties": { "NAME": null, "NAME_EN": null, "MAN_MADE": "tower", "LEISURE": null, "AMENITY": null, "OFFICE": null, "SHOP": null, "TOURISM": null, "SPORT": null, "OSM_TYPE": "node", "OSM_ID": 4199989891 }, "geometry": { "type": "Point", "coordinates": [ -68.2360116, 12.0878318 ] } },
{ "type": "Feature", "properties": { "NAME": "Bis Morto", "NAME_EN": null, "MAN_MADE": null, "LEISURE": null, "AMENITY": null, "OFFICE": null, "SHOP": null, "TOURISM": null, "SPORT": "scuba_diving", "OSM_TYPE": "node", "OSM_ID": 4200486589 }, "geometry": { "type": "Point", "coordinates": [ -68.41322120000001, 12.2935303 ] } },
{ "type": "Feature", "properties": { "NAME": null, "NAME_EN": null, "MAN_MADE": null, "LEISURE": null, "AMENITY": "parking", "OFFICE": null, "SHOP": null, "TOURISM": null, "SPORT": null, "OSM_TYPE": "node", "OSM_ID": 4204848851 }, "geometry": { "type": "Point", "coordinates": [ -68.2155106, 12.218912 ] } },
{ "type": "Feature", "properties": { "NAME": null, "NAME_EN": null, "MAN_MADE": "tower", "LEISURE": null, "AMENITY": null, "OFFICE": null, "SHOP": null, "TOURISM": null, "SPORT": null, "OSM_TYPE": "node", "OSM_ID": 4206936356 }, "geometry": { "type": "Point", "coordinates": [ -68.4120935, 12.2345357 ] } },
{ "type": "Feature", "properties": { "NAME": "Playa Grandi", "NAME_EN": null, "MAN_MADE": null, "LEISURE": null, "AMENITY": null, "OFFICE": null, "SHOP": null, "TOURISM": "viewpoint", "SPORT": null, "OSM_TYPE": "node", "OSM_ID": 4282959492 }, "geometry": { "type": "Point", "coordinates": [ -68.3365686, 12.2707232 ] } },
{ "type": "Feature", "properties": { "NAME": "Boka Onima", "NAME_EN": null, "MAN_MADE": null, "LEISURE": null, "AMENITY": null, "OFFICE": null, "SHOP": null, "TOURISM": "attraction", "SPORT": null, "OSM_TYPE": "node", "OSM_ID": 4283055253 }, "geometry": { "type": "Point", "coordinates": [ -68.3114481, 12.2533215 ] } },
{ "type": "Feature", "properties": { "NAME": "Kaomati", "NAME_EN": null, "MAN_MADE": null, "LEISURE": null, "AMENITY": null, "OFFICE": null, "SHOP": null, "TOURISM": "viewpoint", "SPORT": null, "OSM_TYPE": "node", "OSM_ID": 4283094398 }, "geometry": { "type": "Point", "coordinates": [ -68.3163991, 12.2495717 ] } },
{ "type": "Feature", "properties": { "NAME": "Pos shon leu", "NAME_EN": null, "MAN_MADE": null, "LEISURE": null, "AMENITY": null, "OFFICE": null, "SHOP": null, "TOURISM": "attraction", "SPORT": null, "OSM_TYPE": "node", "OSM_ID": 4283205570 }, "geometry": { "type": "Point", "coordinates": [ -68.3476605, 12.24632 ] } },
{ "type": "Feature", "properties": { "NAME": "SMED Divers", "NAME_EN": null, "MAN_MADE": null, "LEISURE": null, "AMENITY": null, "OFFICE": null, "SHOP": "sports", "TOURISM": null, "SPORT": null, "OSM_TYPE": "node", "OSM_ID": 4291280191 }, "geometry": { "type": "Point", "coordinates": [ -68.2885576, 12.1776528 ] } },
{ "type": "Feature", "properties": { "NAME": "Bubbles Villa", "NAME_EN": null, "MAN_MADE": null, "LEISURE": null, "AMENITY": null, "OFFICE": null, "SHOP": null, "TOURISM": "guest_house", "SPORT": null, "OSM_TYPE": "node", "OSM_ID": 4291324591 }, "geometry": { "type": "Point", "coordinates": [ -68.2884097, 12.1774461 ] } },
{ "type": "Feature", "properties": { "NAME": "Public Fish Market", "NAME_EN": null, "MAN_MADE": null, "LEISURE": null, "AMENITY": null, "OFFICE": null, "SHOP": "seafood", "TOURISM": null, "SPORT": null, "OSM_TYPE": "node", "OSM_ID": 4313248393 }, "geometry": { "type": "Point", "coordinates": [ -68.2771566, 12.1500129 ] } },
{ "type": "Feature", "properties": { "NAME": null, "NAME_EN": null, "MAN_MADE": null, "LEISURE": null, "AMENITY": "bench", "OFFICE": null, "SHOP": null, "TOURISM": null, "SPORT": null, "OSM_TYPE": "node", "OSM_ID": 4323666591 }, "geometry": { "type": "Point", "coordinates": [ -68.2819561, 12.1258577 ] } },
{ "type": "Feature", "properties": { "NAME": "Bon Tapas", "NAME_EN": null, "MAN_MADE": null, "LEISURE": null, "AMENITY": "restaurant", "OFFICE": null, "SHOP": null, "TOURISM": null, "SPORT": null, "OSM_TYPE": "node", "OSM_ID": 4348505390 }, "geometry": { "type": "Point", "coordinates": [ -68.2771259, 12.1509968 ] } },
{ "type": "Feature", "properties": { "NAME": null, "NAME_EN": "Back to Basic Bonaire", "MAN_MADE": null, "LEISURE": null, "AMENITY": null, "OFFICE": null, "SHOP": null, "TOURISM": "hotel", "SPORT": null, "OSM_TYPE": "node", "OSM_ID": 4367158191 }, "geometry": { "type": "Point", "coordinates": [ -68.2672553, 12.1986261 ] } },
{ "type": "Feature", "properties": { "NAME": "Tronco Snacks", "NAME_EN": null, "MAN_MADE": null, "LEISURE": null, "AMENITY": "restaurant", "OFFICE": null, "SHOP": null, "TOURISM": null, "SPORT": null, "OSM_TYPE": "node", "OSM_ID": 4417577953 }, "geometry": { "type": "Point", "coordinates": [ -68.2568185, 12.1418718 ] } },
{ "type": "Feature", "properties": { "NAME": "Zozo Ranch", "NAME_EN": null, "MAN_MADE": null, "LEISURE": null, "AMENITY": "kindergarten", "OFFICE": null, "SHOP": null, "TOURISM": null, "SPORT": null, "OSM_TYPE": "node", "OSM_ID": 4424105890 }, "geometry": { "type": "Point", "coordinates": [ -68.2490485, 12.1359322 ] } },
{ "type": "Feature", "properties": { "NAME": "Wayaka 2", "NAME_EN": null, "MAN_MADE": null, "LEISURE": null, "AMENITY": null, "OFFICE": null, "SHOP": null, "TOURISM": null, "SPORT": "scuba_diving", "OSM_TYPE": "node", "OSM_ID": 4437663289 }, "geometry": { "type": "Point", "coordinates": [ -68.4139081, 12.2696116 ] } },
{ "type": "Feature", "properties": { "NAME": "Panorama East Coast", "NAME_EN": null, "MAN_MADE": null, "LEISURE": null, "AMENITY": null, "OFFICE": null, "SHOP": null, "TOURISM": "viewpoint", "SPORT": null, "OSM_TYPE": "node", "OSM_ID": 4499390303 }, "geometry": { "type": "Point", "coordinates": [ -68.3375355, 12.2711469 ] } },
{ "type": "Feature", "properties": { "NAME": "BuurtCentrum Nikiboko", "NAME_EN": "BuurtCentrum Nikiboko", "MAN_MADE": null, "LEISURE": null, "AMENITY": "community_centre", "OFFICE": null, "SHOP": null, "TOURISM": null, "SPORT": null, "OSM_TYPE": "node", "OSM_ID": 4556106189 }, "geometry": { "type": "Point", "coordinates": [ -68.2627789, 12.1470353 ] } },
{ "type": "Feature", "properties": { "NAME": null, "NAME_EN": "Windsock The Beach", "MAN_MADE": null, "LEISURE": null, "AMENITY": "bar", "OFFICE": null, "SHOP": null, "TOURISM": null, "SPORT": null, "OSM_TYPE": "node", "OSM_ID": 4559360497 }, "geometry": { "type": "Point", "coordinates": [ -68.2859536, 12.1283418 ] } },
{ "type": "Feature", "properties": { "NAME": "Botica Bonaire", "NAME_EN": "Botica Bonaire", "MAN_MADE": null, "LEISURE": null, "AMENITY": "pharmacy", "OFFICE": null, "SHOP": null, "TOURISM": null, "SPORT": null, "OSM_TYPE": "node", "OSM_ID": 4581570391 }, "geometry": { "type": "Point", "coordinates": [ -68.275167, 12.1542734 ] } },
{ "type": "Feature", "properties": { "NAME": "Villa Paul", "NAME_EN": null, "MAN_MADE": null, "LEISURE": null, "AMENITY": null, "OFFICE": null, "SHOP": null, "TOURISM": "apartment", "SPORT": null, "OSM_TYPE": "node", "OSM_ID": 4588699295 }, "geometry": { "type": "Point", "coordinates": [ -68.2825379, 12.1854222 ] } },
{ "type": "Feature", "properties": { "NAME": "Bonaire Handmakers", "NAME_EN": "Bonaire Handmakers", "MAN_MADE": null, "LEISURE": null, "AMENITY": null, "OFFICE": null, "SHOP": "gift", "TOURISM": null, "SPORT": null, "OSM_TYPE": "node", "OSM_ID": 4593001693 }, "geometry": { "type": "Point", "coordinates": [ -68.2768652, 12.150828 ] } },
{ "type": "Feature", "properties": { "NAME": null, "NAME_EN": "Villa Alcyone Bonaire", "MAN_MADE": null, "LEISURE": null, "AMENITY": null, "OFFICE": null, "SHOP": null, "TOURISM": "hotel", "SPORT": null, "OSM_TYPE": "node", "OSM_ID": 4601728189 }, "geometry": { "type": "Point", "coordinates": [ -68.2789063, 12.1251203 ] } },
{ "type": "Feature", "properties": { "NAME": null, "NAME_EN": "Sabal Palm 50", "MAN_MADE": null, "LEISURE": null, "AMENITY": null, "OFFICE": null, "SHOP": null, "TOURISM": "hotel", "SPORT": null, "OSM_TYPE": "node", "OSM_ID": 4625457991 }, "geometry": { "type": "Point", "coordinates": [ -68.2794455, 12.1240137 ] } },
{ "type": "Feature", "properties": { "NAME": "Bonaire Affair", "NAME_EN": null, "MAN_MADE": null, "LEISURE": null, "AMENITY": null, "OFFICE": null, "SHOP": "gift", "TOURISM": null, "SPORT": null, "OSM_TYPE": "node", "OSM_ID": 4668205443 }, "geometry": { "type": "Point", "coordinates": [ -68.2774837, 12.1513556 ] } },
{ "type": "Feature", "properties": { "NAME": "Little Havana", "NAME_EN": null, "MAN_MADE": null, "LEISURE": null, "AMENITY": "pub", "OFFICE": null, "SHOP": null, "TOURISM": null, "SPORT": null, "OSM_TYPE": "node", "OSM_ID": 4668214677 }, "geometry": { "type": "Point", "coordinates": [ -68.2776231, 12.1524176 ] } },
{ "type": "Feature", "properties": { "NAME": "Donna & Giorgio", "NAME_EN": null, "MAN_MADE": null, "LEISURE": null, "AMENITY": "restaurant", "OFFICE": null, "SHOP": null, "TOURISM": null, "SPORT": null, "OSM_TYPE": "node", "OSM_ID": 4668226493 }, "geometry": { "type": "Point", "coordinates": [ -68.277287800000011, 12.1531033 ] } },
{ "type": "Feature", "properties": { "NAME": "Osaka Sushi", "NAME_EN": null, "MAN_MADE": null, "LEISURE": null, "AMENITY": "restaurant", "OFFICE": null, "SHOP": null, "TOURISM": null, "SPORT": null, "OSM_TYPE": "node", "OSM_ID": 4668229882 }, "geometry": { "type": "Point", "coordinates": [ -68.2772275, 12.1530574 ] } },
{ "type": "Feature", "properties": { "NAME": null, "NAME_EN": null, "MAN_MADE": null, "LEISURE": null, "AMENITY": null, "OFFICE": null, "SHOP": "doityourself", "TOURISM": null, "SPORT": null, "OSM_TYPE": "node", "OSM_ID": 4668233633 }, "geometry": { "type": "Point", "coordinates": [ -68.2769043, 12.1534954 ] } },
{ "type": "Feature", "properties": { "NAME": "Tisa Bonaire", "NAME_EN": null, "MAN_MADE": null, "LEISURE": null, "AMENITY": null, "OFFICE": null, "SHOP": "clothes", "TOURISM": null, "SPORT": null, "OSM_TYPE": "node", "OSM_ID": 4668276662 }, "geometry": { "type": "Point", "coordinates": [ -68.2761687, 12.1518749 ] } },
{ "type": "Feature", "properties": { "NAME": "Top Supermarket", "NAME_EN": null, "MAN_MADE": null, "LEISURE": null, "AMENITY": null, "OFFICE": null, "SHOP": "supermarket", "TOURISM": null, "SPORT": null, "OSM_TYPE": "node", "OSM_ID": 4668276782 }, "geometry": { "type": "Point", "coordinates": [ -68.2756678, 12.152672 ] } },
{ "type": "Feature", "properties": { "NAME": null, "NAME_EN": null, "MAN_MADE": null, "LEISURE": null, "AMENITY": "atm", "OFFICE": null, "SHOP": null, "TOURISM": null, "SPORT": null, "OSM_TYPE": "node", "OSM_ID": 4668476827 }, "geometry": { "type": "Point", "coordinates": [ -68.2758341, 12.1435994 ] } },
{ "type": "Feature", "properties": { "NAME": null, "NAME_EN": null, "MAN_MADE": null, "LEISURE": null, "AMENITY": "atm", "OFFICE": null, "SHOP": null, "TOURISM": null, "SPORT": null, "OSM_TYPE": "node", "OSM_ID": 4668478018 }, "geometry": { "type": "Point", "coordinates": [ -68.276439, 12.1467669 ] } },
{ "type": "Feature", "properties": { "NAME": "MCB", "NAME_EN": null, "MAN_MADE": null, "LEISURE": null, "AMENITY": "atm", "OFFICE": null, "SHOP": null, "TOURISM": null, "SPORT": null, "OSM_TYPE": "node", "OSM_ID": 4668479443 }, "geometry": { "type": "Point", "coordinates": [ -68.2745574, 12.1371382 ] } },
{ "type": "Feature", "properties": { "NAME": null, "NAME_EN": null, "MAN_MADE": null, "LEISURE": null, "AMENITY": "atm", "OFFICE": null, "SHOP": null, "TOURISM": null, "SPORT": null, "OSM_TYPE": "node", "OSM_ID": 4668490171 }, "geometry": { "type": "Point", "coordinates": [ -68.2893527, 12.1759552 ] } },
{ "type": "Feature", "properties": { "NAME": "Universal Church of Kindom of God", "NAME_EN": "Universal Church of Kindom of God", "MAN_MADE": null, "LEISURE": null, "AMENITY": "place_of_worship", "OFFICE": null, "SHOP": null, "TOURISM": null, "SPORT": null, "OSM_TYPE": "node", "OSM_ID": 4692709995 }, "geometry": { "type": "Point", "coordinates": [ -68.2676641, 12.1434816 ] } },
{ "type": "Feature", "properties": { "NAME": "The Ocean Window", "NAME_EN": "the oceanwindow bv", "MAN_MADE": null, "LEISURE": null, "AMENITY": null, "OFFICE": null, "SHOP": "photo", "TOURISM": null, "SPORT": null, "OSM_TYPE": "node", "OSM_ID": 4709891298 }, "geometry": { "type": "Point", "coordinates": [ -68.2461353, 12.1672586 ] } },
{ "type": "Feature", "properties": { "NAME": null, "NAME_EN": "kas divi", "MAN_MADE": null, "LEISURE": null, "AMENITY": null, "OFFICE": null, "SHOP": "electronics", "TOURISM": null, "SPORT": null, "OSM_TYPE": "node", "OSM_ID": 4709891392 }, "geometry": { "type": "Point", "coordinates": [ -68.2461225, 12.1674143 ] } },
{ "type": "Feature", "properties": { "NAME": "Bonaire Scuba School", "NAME_EN": null, "MAN_MADE": null, "LEISURE": null, "AMENITY": "school", "OFFICE": null, "SHOP": null, "TOURISM": null, "SPORT": null, "OSM_TYPE": "node", "OSM_ID": 4715054389 }, "geometry": { "type": "Point", "coordinates": [ -68.2884381, 12.177516 ] } },
{ "type": "Feature", "properties": { "NAME": null, "NAME_EN": null, "MAN_MADE": null, "LEISURE": null, "AMENITY": null, "OFFICE": null, "SHOP": null, "TOURISM": "guest_house", "SPORT": null, "OSM_TYPE": "node", "OSM_ID": 4715180692 }, "geometry": { "type": "Point", "coordinates": [ -68.2597147, 12.167943 ] } },
{ "type": "Feature", "properties": { "NAME": "Rum Runners", "NAME_EN": "Rum runners", "MAN_MADE": null, "LEISURE": null, "AMENITY": "restaurant", "OFFICE": null, "SHOP": null, "TOURISM": null, "SPORT": null, "OSM_TYPE": "node", "OSM_ID": 4725063292 }, "geometry": { "type": "Point", "coordinates": [ -68.2885784, 12.1719827 ] } },
{ "type": "Feature", "properties": { "NAME": null, "NAME_EN": "Dutch Car Repair", "MAN_MADE": null, "LEISURE": null, "AMENITY": null, "OFFICE": null, "SHOP": "car_repair", "TOURISM": null, "SPORT": null, "OSM_TYPE": "node", "OSM_ID": 4739701474 }, "geometry": { "type": "Point", "coordinates": [ -68.2448472, 12.1718615 ] } },
{ "type": "Feature", "properties": { "NAME": null, "NAME_EN": "Jellastone Pet Park", "MAN_MADE": null, "LEISURE": null, "AMENITY": null, "OFFICE": null, "SHOP": "pet", "TOURISM": null, "SPORT": null, "OSM_TYPE": "node", "OSM_ID": 4739701475 }, "geometry": { "type": "Point", "coordinates": [ -68.2367549, 12.1776648 ] } },
{ "type": "Feature", "properties": { "NAME": "Digicel", "NAME_EN": null, "MAN_MADE": null, "LEISURE": null, "AMENITY": null, "OFFICE": null, "SHOP": "mobile_phone", "TOURISM": null, "SPORT": null, "OSM_TYPE": "node", "OSM_ID": 4768036569 }, "geometry": { "type": "Point", "coordinates": [ -68.2767869, 12.1512572 ] } },
{ "type": "Feature", "properties": { "NAME": "Alma Lusa Bakery & Pastries", "NAME_EN": null, "MAN_MADE": null, "LEISURE": null, "AMENITY": null, "OFFICE": null, "SHOP": "bakery", "TOURISM": null, "SPORT": null, "OSM_TYPE": "node", "OSM_ID": 4769577821 }, "geometry": { "type": "Point", "coordinates": [ -68.2776274, 12.1533261 ] } },
{ "type": "Feature", "properties": { "NAME": "Blowhole", "NAME_EN": null, "MAN_MADE": null, "LEISURE": null, "AMENITY": null, "OFFICE": null, "SHOP": null, "TOURISM": "viewpoint", "SPORT": null, "OSM_TYPE": "node", "OSM_ID": 4848642699 }, "geometry": { "type": "Point", "coordinates": [ -68.207675200000011, 12.1724168 ] } },
{ "type": "Feature", "properties": { "NAME": "Orange Express", "NAME_EN": "Orange Express", "MAN_MADE": null, "LEISURE": null, "AMENITY": "restaurant", "OFFICE": null, "SHOP": null, "TOURISM": null, "SPORT": null, "OSM_TYPE": "node", "OSM_ID": 4868435021 }, "geometry": { "type": "Point", "coordinates": [ -68.2639622, 12.1448458 ] } },
{ "type": "Feature", "properties": { "NAME": "Huisarts Schrder", "NAME_EN": "Huisarts Schrder", "MAN_MADE": null, "LEISURE": null, "AMENITY": "doctors", "OFFICE": null, "SHOP": null, "TOURISM": null, "SPORT": null, "OSM_TYPE": "node", "OSM_ID": 4878698821 }, "geometry": { "type": "Point", "coordinates": [ -68.2738214, 12.1549378 ] } },
{ "type": "Feature", "properties": { "NAME": "Djambo Apartments", "NAME_EN": null, "MAN_MADE": null, "LEISURE": null, "AMENITY": null, "OFFICE": null, "SHOP": null, "TOURISM": "hotel", "SPORT": null, "OSM_TYPE": "node", "OSM_ID": 4883510717 }, "geometry": { "type": "Point", "coordinates": [ -68.2731602, 12.1427662 ] } },
{ "type": "Feature", "properties": { "NAME": "Watersport Center Bonaire @ Courtyard by Marriott", "NAME_EN": null, "MAN_MADE": null, "LEISURE": null, "AMENITY": null, "OFFICE": null, "SHOP": "water_sports", "TOURISM": null, "SPORT": "water_sports", "OSM_TYPE": "node", "OSM_ID": 4917703734 }, "geometry": { "type": "Point", "coordinates": [ -68.2698577, 12.1381714 ] } },
{ "type": "Feature", "properties": { "NAME": "Dive Friends Bonaire @ HO", "NAME_EN": null, "MAN_MADE": null, "LEISURE": null, "AMENITY": null, "OFFICE": null, "SHOP": "scuba_diving", "TOURISM": null, "SPORT": null, "OSM_TYPE": "node", "OSM_ID": 4917703735 }, "geometry": { "type": "Point", "coordinates": [ -68.289999200000011, 12.1742908 ] } },
{ "type": "Feature", "properties": { "NAME": "Dive Friends Bonaire @ PB", "NAME_EN": null, "MAN_MADE": null, "LEISURE": null, "AMENITY": null, "OFFICE": null, "SHOP": "scuba_diving", "TOURISM": null, "SPORT": null, "OSM_TYPE": "node", "OSM_ID": 4917707321 }, "geometry": { "type": "Point", "coordinates": [ -68.2777433, 12.1345803 ] } },
{ "type": "Feature", "properties": { "NAME": "Dive Friends Bonaire Retail", "NAME_EN": null, "MAN_MADE": null, "LEISURE": null, "AMENITY": null, "OFFICE": null, "SHOP": "scuba_diving", "TOURISM": null, "SPORT": null, "OSM_TYPE": "node", "OSM_ID": 4917707322 }, "geometry": { "type": "Point", "coordinates": [ -68.2866892, 12.1678101 ] } },
{ "type": "Feature", "properties": { "NAME": "Cari", "NAME_EN": null, "MAN_MADE": null, "LEISURE": null, "AMENITY": null, "OFFICE": null, "SHOP": null, "TOURISM": "guest_house", "SPORT": null, "OSM_TYPE": "node", "OSM_ID": 4921172421 }, "geometry": { "type": "Point", "coordinates": [ -68.254192, 12.1659569 ] } },
{ "type": "Feature", "properties": { "NAME": "Kite City Food Truck", "NAME_EN": null, "MAN_MADE": null, "LEISURE": null, "AMENITY": "fast_food", "OFFICE": null, "SHOP": null, "TOURISM": null, "SPORT": null, "OSM_TYPE": "node", "OSM_ID": 4922789098 }, "geometry": { "type": "Point", "coordinates": [ -68.2797766, 12.1342653 ] } },
{ "type": "Feature", "properties": { "NAME": null, "NAME_EN": null, "MAN_MADE": null, "LEISURE": null, "AMENITY": "parking", "OFFICE": null, "SHOP": null, "TOURISM": null, "SPORT": null, "OSM_TYPE": "node", "OSM_ID": 4924943379 }, "geometry": { "type": "Point", "coordinates": [ -68.3583684, 12.2952466 ] } },
{ "type": "Feature", "properties": { "NAME": null, "NAME_EN": "Kas Bon Aire Holliday-apartments", "MAN_MADE": null, "LEISURE": null, "AMENITY": null, "OFFICE": null, "SHOP": null, "TOURISM": "hotel", "SPORT": null, "OSM_TYPE": "node", "OSM_ID": 4925308324 }, "geometry": { "type": "Point", "coordinates": [ -68.2780462, 12.1843364 ] } },
{ "type": "Feature", "properties": { "NAME": null, "NAME_EN": "Kas Blue Aire Wellness", "MAN_MADE": null, "LEISURE": "fitness_centre", "AMENITY": null, "OFFICE": null, "SHOP": null, "TOURISM": null, "SPORT": null, "OSM_TYPE": "node", "OSM_ID": 4925310121 }, "geometry": { "type": "Point", "coordinates": [ -68.2783871, 12.1842448 ] } },
{ "type": "Feature", "properties": { "NAME": "Anke's Scissors", "NAME_EN": null, "MAN_MADE": null, "LEISURE": null, "AMENITY": null, "OFFICE": null, "SHOP": "hairdresser", "TOURISM": null, "SPORT": null, "OSM_TYPE": "node", "OSM_ID": 4971358723 }, "geometry": { "type": "Point", "coordinates": [ -68.2819786, 12.1608889 ] } },
{ "type": "Feature", "properties": { "NAME": "New Wei Taai", "NAME_EN": "New Wei Taai", "MAN_MADE": null, "LEISURE": null, "AMENITY": "restaurant", "OFFICE": null, "SHOP": null, "TOURISM": null, "SPORT": null, "OSM_TYPE": "node", "OSM_ID": 5002241025 }, "geometry": { "type": "Point", "coordinates": [ -68.2823127, 12.1615234 ] } },
{ "type": "Feature", "properties": { "NAME": "New Wei Taai", "NAME_EN": "New Wei Taai", "MAN_MADE": null, "LEISURE": null, "AMENITY": "restaurant", "OFFICE": null, "SHOP": null, "TOURISM": null, "SPORT": null, "OSM_TYPE": "node", "OSM_ID": 5002241026 }, "geometry": { "type": "Point", "coordinates": [ -68.2823501, 12.1615614 ] } },
{ "type": "Feature", "properties": { "NAME": null, "NAME_EN": "Digi Buriku", "MAN_MADE": null, "LEISURE": null, "AMENITY": null, "OFFICE": null, "SHOP": "computer", "TOURISM": null, "SPORT": null, "OSM_TYPE": "node", "OSM_ID": 5114053322 }, "geometry": { "type": "Point", "coordinates": [ -68.2461544, 12.1670049 ] } },
{ "type": "Feature", "properties": { "NAME": "Bonaire IDC", "NAME_EN": null, "MAN_MADE": null, "LEISURE": null, "AMENITY": "school", "OFFICE": null, "SHOP": null, "TOURISM": null, "SPORT": null, "OSM_TYPE": "node", "OSM_ID": 5141065122 }, "geometry": { "type": "Point", "coordinates": [ -68.288378200000011, 12.1775436 ] } },
{ "type": "Feature", "properties": { "NAME": "Zens bar & cafe", "NAME_EN": "Zens bar & cafe", "MAN_MADE": null, "LEISURE": null, "AMENITY": "restaurant", "OFFICE": null, "SHOP": null, "TOURISM": null, "SPORT": null, "OSM_TYPE": "node", "OSM_ID": 5193921027 }, "geometry": { "type": "Point", "coordinates": [ -68.2853417, 12.1679737 ] } },
{ "type": "Feature", "properties": { "NAME": null, "NAME_EN": "Cactus Blue Food Truck", "MAN_MADE": null, "LEISURE": null, "AMENITY": "fast_food", "OFFICE": null, "SHOP": null, "TOURISM": null, "SPORT": null, "OSM_TYPE": "node", "OSM_ID": 5196524223 }, "geometry": { "type": "Point", "coordinates": [ -68.2843722, 12.130539 ] } },
{ "type": "Feature", "properties": { "NAME": "Caribbean Coffee Compagny", "NAME_EN": "Caribbean Coffee Compagny", "MAN_MADE": null, "LEISURE": null, "AMENITY": null, "OFFICE": null, "SHOP": "wine", "TOURISM": null, "SPORT": null, "OSM_TYPE": "node", "OSM_ID": 5278156024 }, "geometry": { "type": "Point", "coordinates": [ -68.2707329, 12.1448992 ] } },
{ "type": "Feature", "properties": { "NAME": "Batalha", "NAME_EN": "ARTES PIEDRAS B.V.", "MAN_MADE": null, "LEISURE": null, "AMENITY": null, "OFFICE": null, "SHOP": null, "TOURISM": "apartment", "SPORT": null, "OSM_TYPE": "node", "OSM_ID": 5315726922 }, "geometry": { "type": "Point", "coordinates": [ -68.2593817, 12.1428638 ] } },
{ "type": "Feature", "properties": { "NAME": null, "NAME_EN": "Amarula guesthouse", "MAN_MADE": null, "LEISURE": null, "AMENITY": null, "OFFICE": null, "SHOP": null, "TOURISM": "guest_house", "SPORT": null, "OSM_TYPE": "node", "OSM_ID": 5364814221 }, "geometry": { "type": "Point", "coordinates": [ -68.288086, 12.1229392 ] } },
{ "type": "Feature", "properties": { "NAME": "Delfins Beach Resort", "NAME_EN": null, "MAN_MADE": null, "LEISURE": null, "AMENITY": null, "OFFICE": null, "SHOP": null, "TOURISM": "hotel", "SPORT": null, "OSM_TYPE": "node", "OSM_ID": 5366686511 }, "geometry": { "type": "Point", "coordinates": [ -68.2939695, 12.1150042 ] } },
{ "type": "Feature", "properties": { "NAME": "Cave Tree", "NAME_EN": null, "MAN_MADE": null, "LEISURE": null, "AMENITY": null, "OFFICE": null, "SHOP": null, "TOURISM": "viewpoint", "SPORT": null, "OSM_TYPE": "node", "OSM_ID": 5404389221 }, "geometry": { "type": "Point", "coordinates": [ -68.3127898, 12.2124735 ] } },
{ "type": "Feature", "properties": { "NAME": null, "NAME_EN": null, "MAN_MADE": "water_tower", "LEISURE": null, "AMENITY": null, "OFFICE": null, "SHOP": null, "TOURISM": null, "SPORT": null, "OSM_TYPE": "node", "OSM_ID": 5404440032 }, "geometry": { "type": "Point", "coordinates": [ -68.3561627, 12.2388657 ] } },
{ "type": "Feature", "properties": { "NAME": null, "NAME_EN": null, "MAN_MADE": null, "LEISURE": null, "AMENITY": "drinking_water", "OFFICE": null, "SHOP": null, "TOURISM": null, "SPORT": null, "OSM_TYPE": "node", "OSM_ID": 5404454921 }, "geometry": { "type": "Point", "coordinates": [ -68.35623, 12.2388858 ] } },
{ "type": "Feature", "properties": { "NAME": "South Pier Mall", "NAME_EN": null, "MAN_MADE": null, "LEISURE": null, "AMENITY": null, "OFFICE": null, "SHOP": "mall", "TOURISM": null, "SPORT": null, "OSM_TYPE": "node", "OSM_ID": 5408268311 }, "geometry": { "type": "Point", "coordinates": [ -68.2765371, 12.146911 ] } },
{ "type": "Feature", "properties": { "NAME": "Cave", "NAME_EN": null, "MAN_MADE": null, "LEISURE": null, "AMENITY": null, "OFFICE": null, "SHOP": null, "TOURISM": "viewpoint", "SPORT": null, "OSM_TYPE": "node", "OSM_ID": 5412979122 }, "geometry": { "type": "Point", "coordinates": [ -68.3239043, 12.2214065 ] } },
{ "type": "Feature", "properties": { "NAME": "Bon Bida Beauty", "NAME_EN": null, "MAN_MADE": null, "LEISURE": null, "AMENITY": null, "OFFICE": null, "SHOP": "beauty", "TOURISM": null, "SPORT": null, "OSM_TYPE": "node", "OSM_ID": 5412995222 }, "geometry": { "type": "Point", "coordinates": [ -68.2861084, 12.1696744 ] } },
{ "type": "Feature", "properties": { "NAME": "Catholic Schoolboard", "NAME_EN": "Catholic Schoolboard", "MAN_MADE": null, "LEISURE": null, "AMENITY": null, "OFFICE": "company", "SHOP": null, "TOURISM": null, "SPORT": null, "OSM_TYPE": "node", "OSM_ID": 5417801421 }, "geometry": { "type": "Point", "coordinates": [ -68.2738346, 12.1528204 ] } },
{ "type": "Feature", "properties": { "NAME": "Kolegio San Luis Bertran", "NAME_EN": null, "MAN_MADE": null, "LEISURE": null, "AMENITY": "school", "OFFICE": null, "SHOP": null, "TOURISM": null, "SPORT": null, "OSM_TYPE": "node", "OSM_ID": 5417805827 }, "geometry": { "type": "Point", "coordinates": [ -68.327973, 12.2335851 ] } },
{ "type": "Feature", "properties": { "NAME": "Skol Amplio Papa Cornes", "NAME_EN": "Skol Amplio Papa Cornes", "MAN_MADE": null, "LEISURE": null, "AMENITY": "school", "OFFICE": null, "SHOP": null, "TOURISM": null, "SPORT": null, "OSM_TYPE": "node", "OSM_ID": 5417810521 }, "geometry": { "type": "Point", "coordinates": [ -68.2792077, 12.174677 ] } },
{ "type": "Feature", "properties": { "NAME": "Caribbean Laundry service and Magero Self Service Laundry", "NAME_EN": "Caribbean Laundry service and Magero Self Service Laundry", "MAN_MADE": null, "LEISURE": null, "AMENITY": null, "OFFICE": null, "SHOP": "laundry", "TOURISM": null, "SPORT": null, "OSM_TYPE": "node", "OSM_ID": 5422772321 }, "geometry": { "type": "Point", "coordinates": [ -68.2726484, 12.1494748 ] } },
{ "type": "Feature", "properties": { "NAME": "Bonaire Cruisers Rentals", "NAME_EN": "Bonaire Cruisers Rentals", "MAN_MADE": null, "LEISURE": null, "AMENITY": "car_rental", "OFFICE": null, "SHOP": null, "TOURISM": null, "SPORT": null, "OSM_TYPE": "node", "OSM_ID": 5426862622 }, "geometry": { "type": "Point", "coordinates": [ -68.2746118, 12.1484931 ] } },
{ "type": "Feature", "properties": { "NAME": "Flamingo Adventure Golf", "NAME_EN": null, "MAN_MADE": null, "LEISURE": "miniature_golf", "AMENITY": null, "OFFICE": null, "SHOP": null, "TOURISM": null, "SPORT": null, "OSM_TYPE": "node", "OSM_ID": 5483325958 }, "geometry": { "type": "Point", "coordinates": [ -68.252761400000011, 12.137161 ] } },
{ "type": "Feature", "properties": { "NAME": "Rijks Caribisch Nederland", "NAME_EN": "Rijks Caribisch Nederland", "MAN_MADE": null, "LEISURE": null, "AMENITY": null, "OFFICE": "government", "SHOP": null, "TOURISM": null, "SPORT": null, "OSM_TYPE": "node", "OSM_ID": 5511458727 }, "geometry": { "type": "Point", "coordinates": [ -68.273624, 12.1466574 ] } },
{ "type": "Feature", "properties": { "NAME": "Shun Jing Snack", "NAME_EN": "Shun Jing Snack", "MAN_MADE": null, "LEISURE": null, "AMENITY": "bar", "OFFICE": null, "SHOP": null, "TOURISM": null, "SPORT": null, "OSM_TYPE": "node", "OSM_ID": 5563018221 }, "geometry": { "type": "Point", "coordinates": [ -68.2712241, 12.1606746 ] } },
{ "type": "Feature", "properties": { "NAME": null, "NAME_EN": "Regalo Snack", "MAN_MADE": null, "LEISURE": null, "AMENITY": "fast_food", "OFFICE": null, "SHOP": null, "TOURISM": null, "SPORT": null, "OSM_TYPE": "node", "OSM_ID": 5581197722 }, "geometry": { "type": "Point", "coordinates": [ -68.274616200000011, 12.1780109 ] } },
{ "type": "Feature", "properties": { "NAME": "Viva Bonaire - Holydayhomes", "NAME_EN": null, "MAN_MADE": null, "LEISURE": null, "AMENITY": null, "OFFICE": null, "SHOP": null, "TOURISM": "apartment", "SPORT": null, "OSM_TYPE": "node", "OSM_ID": 5581598221 }, "geometry": { "type": "Point", "coordinates": [ -68.2926523, 12.1826089 ] } },
{ "type": "Feature", "properties": { "NAME": "Tur Kos Ta Bunita - logopedie", "NAME_EN": "Tur Kos Ta Bunita - speech therapy", "MAN_MADE": null, "LEISURE": null, "AMENITY": null, "OFFICE": "company", "SHOP": null, "TOURISM": null, "SPORT": null, "OSM_TYPE": "node", "OSM_ID": 5581598321 }, "geometry": { "type": "Point", "coordinates": [ -68.2670199, 12.1441178 ] } },
{ "type": "Feature", "properties": { "NAME": "BLT Burger", "NAME_EN": null, "MAN_MADE": null, "LEISURE": null, "AMENITY": "restaurant", "OFFICE": null, "SHOP": null, "TOURISM": null, "SPORT": null, "OSM_TYPE": "node", "OSM_ID": 5585970370 }, "geometry": { "type": "Point", "coordinates": [ -68.2717533, 12.1370686 ] } },
{ "type": "Feature", "properties": { "NAME": null, "NAME_EN": "Lutram Administratie & Beheerkantoor B.V.", "MAN_MADE": null, "LEISURE": null, "AMENITY": null, "OFFICE": "company", "SHOP": null, "TOURISM": null, "SPORT": null, "OSM_TYPE": "node", "OSM_ID": 5613867421 }, "geometry": { "type": "Point", "coordinates": [ -68.272279, 12.1703971 ] } },
{ "type": "Feature", "properties": { "NAME": "Hippie Holidays", "NAME_EN": null, "MAN_MADE": null, "LEISURE": null, "AMENITY": null, "OFFICE": null, "SHOP": null, "TOURISM": "guest_house", "SPORT": null, "OSM_TYPE": "node", "OSM_ID": 5709162985 }, "geometry": { "type": "Point", "coordinates": [ -68.2747484, 12.122645 ] } },
{ "type": "Feature", "properties": { "NAME": null, "NAME_EN": null, "MAN_MADE": null, "LEISURE": null, "AMENITY": null, "OFFICE": null, "SHOP": null, "TOURISM": "hotel", "SPORT": null, "OSM_TYPE": "node", "OSM_ID": 5714975423 }, "geometry": { "type": "Point", "coordinates": [ -68.29378650000001, 12.1813693 ] } },
{ "type": "Feature", "properties": { "NAME": "Eco Lodge Washikemba", "NAME_EN": null, "MAN_MADE": null, "LEISURE": null, "AMENITY": null, "OFFICE": null, "SHOP": null, "TOURISM": "hotel", "SPORT": null, "OSM_TYPE": "node", "OSM_ID": 5720871134 }, "geometry": { "type": "Point", "coordinates": [ -68.2243112, 12.1635679 ] } },
{ "type": "Feature", "properties": { "NAME": "Crown Business Center Bonaire", "NAME_EN": "Crown Business Center Bonaire", "MAN_MADE": null, "LEISURE": null, "AMENITY": null, "OFFICE": "company", "SHOP": null, "TOURISM": null, "SPORT": null, "OSM_TYPE": "node", "OSM_ID": 5777749153 }, "geometry": { "type": "Point", "coordinates": [ -68.277240400000011, 12.151199 ] } },
{ "type": "Feature", "properties": { "NAME": "Playa Coco", "NAME_EN": null, "MAN_MADE": null, "LEISURE": null, "AMENITY": null, "OFFICE": null, "SHOP": null, "TOURISM": "guest_house", "SPORT": null, "OSM_TYPE": "node", "OSM_ID": 5859372186 }, "geometry": { "type": "Point", "coordinates": [ -68.29253940000001, 12.179479 ] } },
{ "type": "Feature", "properties": { "NAME": "SoloBon Sailing", "NAME_EN": null, "MAN_MADE": null, "LEISURE": null, "AMENITY": null, "OFFICE": null, "SHOP": null, "TOURISM": "attraction", "SPORT": null, "OSM_TYPE": "node", "OSM_ID": 6009922641 }, "geometry": { "type": "Point", "coordinates": [ -68.2845991, 12.1643416 ] } },
{ "type": "Feature", "properties": { "NAME": "Villa Salentein", "NAME_EN": null, "MAN_MADE": null, "LEISURE": null, "AMENITY": null, "OFFICE": null, "SHOP": null, "TOURISM": "hotel", "SPORT": null, "OSM_TYPE": "node", "OSM_ID": 6015871585 }, "geometry": { "type": "Point", "coordinates": [ -68.3019234, 12.1968443 ] } },
{ "type": "Feature", "properties": { "NAME": "ORCO Bank", "NAME_EN": "ORCO Bank", "MAN_MADE": null, "LEISURE": null, "AMENITY": "bank", "OFFICE": null, "SHOP": null, "TOURISM": null, "SPORT": null, "OSM_TYPE": "node", "OSM_ID": 6032433185 }, "geometry": { "type": "Point", "coordinates": [ -68.2771431, 12.152724 ] } },
{ "type": "Feature", "properties": { "NAME": null, "NAME_EN": "Villa Popchi", "MAN_MADE": null, "LEISURE": null, "AMENITY": null, "OFFICE": null, "SHOP": null, "TOURISM": "hotel", "SPORT": null, "OSM_TYPE": "node", "OSM_ID": 6066403100 }, "geometry": { "type": "Point", "coordinates": [ -68.2866213, 12.1267496 ] } },
{ "type": "Feature", "properties": { "NAME": "Mil Suenos", "NAME_EN": null, "MAN_MADE": null, "LEISURE": null, "AMENITY": null, "OFFICE": null, "SHOP": null, "TOURISM": "hotel", "SPORT": null, "OSM_TYPE": "node", "OSM_ID": 6066411387 }, "geometry": { "type": "Point", "coordinates": [ -68.306350200000011, 12.1993936 ] } },
{ "type": "Feature", "properties": { "NAME": null, "NAME_EN": "Villa Karibuni", "MAN_MADE": null, "LEISURE": null, "AMENITY": null, "OFFICE": null, "SHOP": null, "TOURISM": "hotel", "SPORT": null, "OSM_TYPE": "node", "OSM_ID": 6066444000 }, "geometry": { "type": "Point", "coordinates": [ -68.2938036, 12.116277 ] } },
{ "type": "Feature", "properties": { "NAME": "Beach House Sabrea", "NAME_EN": null, "MAN_MADE": null, "LEISURE": null, "AMENITY": null, "OFFICE": null, "SHOP": null, "TOURISM": "hotel", "SPORT": null, "OSM_TYPE": "node", "OSM_ID": 6066514286 }, "geometry": { "type": "Point", "coordinates": [ -68.2966544, 12.1913816 ] } },
{ "type": "Feature", "properties": { "NAME": "Villa Mariposa", "NAME_EN": null, "MAN_MADE": null, "LEISURE": null, "AMENITY": null, "OFFICE": null, "SHOP": null, "TOURISM": "hotel", "SPORT": null, "OSM_TYPE": "node", "OSM_ID": 6066543286 }, "geometry": { "type": "Point", "coordinates": [ -68.296219, 12.1907669 ] } },
{ "type": "Feature", "properties": { "NAME": null, "NAME_EN": "Kas Bonchi", "MAN_MADE": null, "LEISURE": null, "AMENITY": null, "OFFICE": null, "SHOP": null, "TOURISM": "hotel", "SPORT": null, "OSM_TYPE": "node", "OSM_ID": 6066549685 }, "geometry": { "type": "Point", "coordinates": [ -68.2870712, 12.1257701 ] } },
{ "type": "Feature", "properties": { "NAME": null, "NAME_EN": "Kas Iguana", "MAN_MADE": null, "LEISURE": null, "AMENITY": null, "OFFICE": null, "SHOP": null, "TOURISM": "hotel", "SPORT": null, "OSM_TYPE": "node", "OSM_ID": 6066549693 }, "geometry": { "type": "Point", "coordinates": [ -68.2932354, 12.1159002 ] } },
{ "type": "Feature", "properties": { "NAME": null, "NAME_EN": "Villa Kwadrangolo", "MAN_MADE": null, "LEISURE": null, "AMENITY": null, "OFFICE": null, "SHOP": null, "TOURISM": "hotel", "SPORT": null, "OSM_TYPE": "node", "OSM_ID": 6066551986 }, "geometry": { "type": "Point", "coordinates": [ -68.29381020000001, 12.1164353 ] } },
{ "type": "Feature", "properties": { "NAME": "JK House", "NAME_EN": null, "MAN_MADE": null, "LEISURE": null, "AMENITY": null, "OFFICE": null, "SHOP": null, "TOURISM": "hotel", "SPORT": null, "OSM_TYPE": "node", "OSM_ID": 6066663985 }, "geometry": { "type": "Point", "coordinates": [ -68.2914628, 12.1964799 ] } },
{ "type": "Feature", "properties": { "NAME": "Villa Azul", "NAME_EN": null, "MAN_MADE": null, "LEISURE": null, "AMENITY": null, "OFFICE": null, "SHOP": null, "TOURISM": "hotel", "SPORT": null, "OSM_TYPE": "node", "OSM_ID": 6066721987 }, "geometry": { "type": "Point", "coordinates": [ -68.2992473, 12.1951679 ] } },
{ "type": "Feature", "properties": { "NAME": "Villa Cassiopeia", "NAME_EN": "Villa Cassiopeia", "MAN_MADE": null, "LEISURE": null, "AMENITY": null, "OFFICE": null, "SHOP": null, "TOURISM": "hotel", "SPORT": null, "OSM_TYPE": "node", "OSM_ID": 6066727790 }, "geometry": { "type": "Point", "coordinates": [ -68.2722949, 12.1365229 ] } },
{ "type": "Feature", "properties": { "NAME": null, "NAME_EN": "Sunset Beach Lodges", "MAN_MADE": null, "LEISURE": null, "AMENITY": null, "OFFICE": null, "SHOP": null, "TOURISM": "hotel", "SPORT": null, "OSM_TYPE": "node", "OSM_ID": 6066727985 }, "geometry": { "type": "Point", "coordinates": [ -68.2916401, 12.1090359 ] } },
{ "type": "Feature", "properties": { "NAME": "Harbour Village Apartment", "NAME_EN": "Harbour Village Apartment", "MAN_MADE": null, "LEISURE": null, "AMENITY": null, "OFFICE": null, "SHOP": null, "TOURISM": "hotel", "SPORT": null, "OSM_TYPE": "node", "OSM_ID": 6066735985 }, "geometry": { "type": "Point", "coordinates": [ -68.2860505, 12.1639393 ] } },
{ "type": "Feature", "properties": { "NAME": "Villa Alvaro", "NAME_EN": null, "MAN_MADE": null, "LEISURE": null, "AMENITY": null, "OFFICE": null, "SHOP": null, "TOURISM": "hotel", "SPORT": null, "OSM_TYPE": "node", "OSM_ID": 6085943085 }, "geometry": { "type": "Point", "coordinates": [ -68.2965843, 12.1904615 ] } },
{ "type": "Feature", "properties": { "NAME": "Bonaire Best Car Rental Autoverhuur", "NAME_EN": "Bonaire Best Car Rental", "MAN_MADE": null, "LEISURE": null, "AMENITY": "car_rental", "OFFICE": null, "SHOP": null, "TOURISM": null, "SPORT": null, "OSM_TYPE": "node", "OSM_ID": 6091285185 }, "geometry": { "type": "Point", "coordinates": [ -68.2619749, 12.1451941 ] } },
{ "type": "Feature", "properties": { "NAME": "Spelonk Cave", "NAME_EN": null, "MAN_MADE": null, "LEISURE": null, "AMENITY": null, "OFFICE": null, "SHOP": null, "TOURISM": "viewpoint", "SPORT": null, "OSM_TYPE": "node", "OSM_ID": 6369337986 }, "geometry": { "type": "Point", "coordinates": [ -68.2171144, 12.2186853 ] } },
{ "type": "Feature", "properties": { "NAME": "Sailing Charter Bonaire", "NAME_EN": "Sailing Charter Bonaire", "MAN_MADE": null, "LEISURE": null, "AMENITY": null, "OFFICE": null, "SHOP": null, "TOURISM": "attraction", "SPORT": null, "OSM_TYPE": "node", "OSM_ID": 6369338085 }, "geometry": { "type": "Point", "coordinates": [ -68.2785435, 12.1534972 ] } },
{ "type": "Feature", "properties": { "NAME": "Aletta's Goat Farm", "NAME_EN": null, "MAN_MADE": null, "LEISURE": null, "AMENITY": null, "OFFICE": null, "SHOP": "cheese", "TOURISM": "attraction", "SPORT": null, "OSM_TYPE": "node", "OSM_ID": 6388286086 }, "geometry": { "type": "Point", "coordinates": [ -68.2803916, 12.2063167 ] } },
{ "type": "Feature", "properties": { "NAME": null, "NAME_EN": null, "MAN_MADE": null, "LEISURE": null, "AMENITY": "toilets", "OFFICE": null, "SHOP": null, "TOURISM": null, "SPORT": null, "OSM_TYPE": "node", "OSM_ID": 6419162687 }, "geometry": { "type": "Point", "coordinates": [ -68.2770797, 12.1504915 ] } },
{ "type": "Feature", "properties": { "NAME": "Las Palmitas", "NAME_EN": null, "MAN_MADE": null, "LEISURE": null, "AMENITY": null, "OFFICE": null, "SHOP": null, "TOURISM": "apartment", "SPORT": null, "OSM_TYPE": "node", "OSM_ID": 6525773146 }, "geometry": { "type": "Point", "coordinates": [ -68.2857547, 12.1250206 ] } },
{ "type": "Feature", "properties": { "NAME": "Dive Friends Bonaire @ DB", "NAME_EN": null, "MAN_MADE": null, "LEISURE": null, "AMENITY": null, "OFFICE": null, "SHOP": null, "TOURISM": null, "SPORT": "scuba_diving", "OSM_TYPE": "node", "OSM_ID": 6525781759 }, "geometry": { "type": "Point", "coordinates": [ -68.293772600000011, 12.1155609 ] } },
{ "type": "Feature", "properties": { "NAME": null, "NAME_EN": "Villa Carina Apartments", "MAN_MADE": null, "LEISURE": null, "AMENITY": null, "OFFICE": null, "SHOP": null, "TOURISM": "apartment", "SPORT": null, "OSM_TYPE": "node", "OSM_ID": 6548622486 }, "geometry": { "type": "Point", "coordinates": [ -68.2896235, 12.1219386 ] } },
{ "type": "Feature", "properties": { "NAME": "Kas ChuChubi", "NAME_EN": "Kas ChuChubi", "MAN_MADE": null, "LEISURE": null, "AMENITY": null, "OFFICE": null, "SHOP": null, "TOURISM": "guest_house", "SPORT": null, "OSM_TYPE": "node", "OSM_ID": 6751659685 }, "geometry": { "type": "Point", "coordinates": [ -68.2738189, 12.1435728 ] } },
{ "type": "Feature", "properties": { "NAME": "International Bible Church", "NAME_EN": null, "MAN_MADE": null, "LEISURE": null, "AMENITY": "place_of_worship", "OFFICE": null, "SHOP": null, "TOURISM": null, "SPORT": null, "OSM_TYPE": "node", "OSM_ID": 6753772566 }, "geometry": { "type": "Point", "coordinates": [ -68.2848371, 12.1695877 ] } },
{ "type": "Feature", "properties": { "NAME": "Chibi Chibi Restaurant &bar", "NAME_EN": null, "MAN_MADE": null, "LEISURE": null, "AMENITY": "restaurant", "OFFICE": null, "SHOP": null, "TOURISM": null, "SPORT": null, "OSM_TYPE": "node", "OSM_ID": 6852801857 }, "geometry": { "type": "Point", "coordinates": [ -68.275904, 12.1436294 ] } },
{ "type": "Feature", "properties": { "NAME": "Multishop", "NAME_EN": null, "MAN_MADE": null, "LEISURE": null, "AMENITY": null, "OFFICE": null, "SHOP": "gift", "TOURISM": null, "SPORT": null, "OSM_TYPE": "node", "OSM_ID": 6895732912 }, "geometry": { "type": "Point", "coordinates": [ -68.28602260000001, 12.1682548 ] } },
{ "type": "Feature", "properties": { "NAME": null, "NAME_EN": "Rancho Mal Macho", "MAN_MADE": null, "LEISURE": null, "AMENITY": null, "OFFICE": null, "SHOP": null, "TOURISM": "apartment", "SPORT": null, "OSM_TYPE": "node", "OSM_ID": 6907022185 }, "geometry": { "type": "Point", "coordinates": [ -68.2679516, 12.1815266 ] } },
{ "type": "Feature", "properties": { "NAME": "Pearle Vision", "NAME_EN": "Pearle Vision", "MAN_MADE": null, "LEISURE": null, "AMENITY": null, "OFFICE": null, "SHOP": "optician", "TOURISM": null, "SPORT": null, "OSM_TYPE": "node", "OSM_ID": 6915777986 }, "geometry": { "type": "Point", "coordinates": [ -68.28552590000001, 12.1684516 ] } },
{ "type": "Feature", "properties": { "NAME": "DA", "NAME_EN": "DA Drogist", "MAN_MADE": null, "LEISURE": null, "AMENITY": null, "OFFICE": null, "SHOP": "chemist", "TOURISM": null, "SPORT": null, "OSM_TYPE": "node", "OSM_ID": 6915869085 }, "geometry": { "type": "Point", "coordinates": [ -68.2854257, 12.1684779 ] } },
{ "type": "Feature", "properties": { "NAME": "Top1Toys", "NAME_EN": "Top1Toys", "MAN_MADE": null, "LEISURE": null, "AMENITY": null, "OFFICE": null, "SHOP": "toys", "TOURISM": null, "SPORT": null, "OSM_TYPE": "node", "OSM_ID": 6915909086 }, "geometry": { "type": "Point", "coordinates": [ -68.2852248, 12.1684466 ] } },
{ "type": "Feature", "properties": { "NAME": "Friendlyhomes apartment", "NAME_EN": "Friendlyhomes apartment", "MAN_MADE": null, "LEISURE": null, "AMENITY": null, "OFFICE": null, "SHOP": null, "TOURISM": "apartment", "SPORT": null, "OSM_TYPE": "node", "OSM_ID": 6920065185 }, "geometry": { "type": "Point", "coordinates": [ -68.2736648, 12.1377634 ] } },
{ "type": "Feature", "properties": { "NAME": null, "NAME_EN": null, "MAN_MADE": null, "LEISURE": null, "AMENITY": null, "OFFICE": null, "SHOP": null, "TOURISM": "apartment", "SPORT": null, "OSM_TYPE": "node", "OSM_ID": 6939809586 }, "geometry": { "type": "Point", "coordinates": [ -68.2596934, 12.1439659 ] } },
{ "type": "Feature", "properties": { "NAME": "White House", "NAME_EN": null, "MAN_MADE": null, "LEISURE": null, "AMENITY": null, "OFFICE": null, "SHOP": null, "TOURISM": "hotel", "SPORT": null, "OSM_TYPE": "node", "OSM_ID": 6945596416 }, "geometry": { "type": "Point", "coordinates": [ -68.2951906, 12.1965904 ] } },
{ "type": "Feature", "properties": { "NAME": null, "NAME_EN": null, "MAN_MADE": null, "LEISURE": null, "AMENITY": "ferry_terminal", "OFFICE": null, "SHOP": null, "TOURISM": null, "SPORT": null, "OSM_TYPE": "node", "OSM_ID": 6970613061 }, "geometry": { "type": "Point", "coordinates": [ -68.2785447, 12.1533083 ] } },
{ "type": "Feature", "properties": { "NAME": null, "NAME_EN": "Blueprint", "MAN_MADE": null, "LEISURE": null, "AMENITY": null, "OFFICE": "company", "SHOP": null, "TOURISM": null, "SPORT": null, "OSM_TYPE": "node", "OSM_ID": 6973075985 }, "geometry": { "type": "Point", "coordinates": [ -68.2790938, 12.1783636 ] } },
{ "type": "Feature", "properties": { "NAME": null, "NAME_EN": "COCO LOCO Bonaire", "MAN_MADE": null, "LEISURE": null, "AMENITY": null, "OFFICE": null, "SHOP": null, "TOURISM": "guest_house", "SPORT": null, "OSM_TYPE": "node", "OSM_ID": 7020296807 }, "geometry": { "type": "Point", "coordinates": [ -68.2833365, 12.1244059 ] } },
{ "type": "Feature", "properties": { "NAME": "Elle et Lui", "NAME_EN": "Elle et Lui", "MAN_MADE": null, "LEISURE": null, "AMENITY": null, "OFFICE": null, "SHOP": "hairdresser", "TOURISM": null, "SPORT": null, "OSM_TYPE": "node", "OSM_ID": 7035700685 }, "geometry": { "type": "Point", "coordinates": [ -68.2854729, 12.1680981 ] } },
{ "type": "Feature", "properties": { "NAME": "Beachvibes Surf Shop", "NAME_EN": "Beachvibes Surf Shop", "MAN_MADE": null, "LEISURE": null, "AMENITY": null, "OFFICE": null, "SHOP": "clothes", "TOURISM": null, "SPORT": null, "OSM_TYPE": "node", "OSM_ID": 7096539685 }, "geometry": { "type": "Point", "coordinates": [ -68.276775300000011, 12.1517684 ] } },
{ "type": "Feature", "properties": { "NAME": null, "NAME_EN": "Bonaire Landsailing Adventured", "MAN_MADE": null, "LEISURE": null, "AMENITY": null, "OFFICE": null, "SHOP": null, "TOURISM": "attraction", "SPORT": null, "OSM_TYPE": "node", "OSM_ID": 7252039085 }, "geometry": { "type": "Point", "coordinates": [ -68.2828801, 12.2341629 ] } },
{ "type": "Feature", "properties": { "NAME": "Put Bronswinkel", "NAME_EN": null, "MAN_MADE": null, "LEISURE": null, "AMENITY": null, "OFFICE": null, "SHOP": null, "TOURISM": "viewpoint", "SPORT": null, "OSM_TYPE": "node", "OSM_ID": 7261999485 }, "geometry": { "type": "Point", "coordinates": [ -68.39813860000001, 12.279869 ] } },
{ "type": "Feature", "properties": { "NAME": "Dner Station", "NAME_EN": null, "MAN_MADE": null, "LEISURE": null, "AMENITY": "fast_food", "OFFICE": null, "SHOP": null, "TOURISM": null, "SPORT": null, "OSM_TYPE": "node", "OSM_ID": 7266423085 }, "geometry": { "type": "Point", "coordinates": [ -68.2853744, 12.1680388 ] } },
{ "type": "Feature", "properties": { "NAME": "Stoked Foodtruck", "NAME_EN": null, "MAN_MADE": null, "LEISURE": null, "AMENITY": "fast_food", "OFFICE": null, "SHOP": null, "TOURISM": null, "SPORT": null, "OSM_TYPE": "node", "OSM_ID": 7272099085 }, "geometry": { "type": "Point", "coordinates": [ -68.2793207, 12.135014 ] } },